     2.10           OBSERVATION DATA    G (GPS)             RINEX VERSION / TYPE
teqc  2002Dec5      gpsops              20030414 01:46:04UTCPGM / RUN BY / DATE
Linux 2.0.36|Pentium II|gcc -static|Linux|486/DX+           COMMENT
ASC1                                                        MARKER NAME
30602M001                                                   MARKER NUMBER
GGN                 JPL                                     OBSERVER / AGENCY
T337-U              AOA SNR-8000 ACT    3.3.32.2            REC # / TYPE / VERS
203                 AOAD/M_T                                ANT # / TYPE
  6118526.0863 -1572344.6793  -876451.1980                  APPROX POSITION XYZ
        0.0677        0.0000        0.0000                  ANTENNA: DELTA H/E/N
     1     1                                                WAVELENGTH FACT L1/2
     7    L1    L2    P1    P2    C1    S1    S2            # / TYPES OF OBSERV
    30.0000                                                 INTERVAL
                                                            COMMENT
This data is provided as a public service by NASA/JPL.      COMMENT
No warranty is expressed or implied regarding suitability   COMMENT
for use.  For further information, contact:                 COMMENT
Dave Stowers, NASA/JPL m/s 238-600                          COMMENT
4800 Oak Grove Drive, Pasadena CA 91109 USA                 COMMENT
                                                            COMMENT
    P1 =    P1  TurboRogue; =    Y1  Benchmark              COMMENT
    L1 = L1(CA)                                             COMMENT
    P2 =    P2  TurboRogue; =    Y2  Benchmark              COMMENT
    L2 = L2(P2) TurboRogue; = L2(Y2) Benchmark              COMMENT
 SNR is mapped to RINEX snr flag value [1,4-9]              COMMENT
    SNR:  >=316 >=100 >=31.6 >=10 >=3.2    >0 bad=0         COMMENT
L1 & L2:      9     8     7     6     5     4     1         COMMENT
teqc windowed: start @ 2003 Apr 13 00:00:00.000             COMMENT
teqc windowed: delta = 86399.000 sec                        COMMENT
  2003     4    13     0     0    0.0000000     GPS         TIME OF FIRST OBS
                                                            END OF HEADER
 03  4 13  0  0  0.0000000  0  9G 5G10G30G 9G29G24G26G 7G17
 -19537350.746 8 -15223908.000 8  22436369.959    22436373.632    22436370.487
       307.000         211.000
 -21286764.547 8 -16587058.782 8  22219505.011    22219509.313    22219505.561
       246.000         265.000
  -7805368.087 7  -6082107.431 6  24703358.677    24703361.835    24703358.071
        45.000          24.000
   2155970.781 7   1679969.156 7  24347556.605    24347566.334    24347556.561
        48.000          33.000
  -4903699.836 6  -3821035.509 6  25053392.301    25053401.045    25053392.179
        31.000          31.000
  -6853248.133 7  -5340138.700 6  24725289.991    24725293.758    24725289.788
        41.000          23.000
  -2150140.957 6  -1675420.406 6  25223209.242    25223221.437    25223208.965
        25.000          17.000
   4151976.871 6   3235355.195 6  26490755.519    26490764.004    26490755.525
        13.000          10.000
    -96978.108 6                  25639745.031                    25639745.302
        14.000  
 03  4 13  0  0 30.0000000  0 10G 5G10G30G 9G29G24G26G21G 7G 6
 -19579052.418 8 -15256402.819 8  22428434.324    22428438.013    22428434.731
       312.000         211.000
 -21264128.171 8 -16569420.015 8  22223812.555    22223816.842    22223813.005
       248.000         265.000
  -7893624.753 7  -6150878.890 6  24686563.966    24686567.112    24686563.392
        45.000          27.000
   2198729.549 7   1713287.251 7  24355693.692    24355703.603    24355693.216
        47.000          34.000
  -4953025.398 6  -3859470.739 6  25044005.790    25044014.324    25044005.640
        31.000          31.000
  -6782057.784 7  -5284665.699 6  24738836.772    24738840.692    24738836.859
        40.000          21.000
  -2190777.825 6  -1707085.126 6  25215476.374    25215487.979    25215476.146
        27.000          17.000
         0.06616                  26395468.247                    26395468.775
        13.000  
   4198877.960 6   3271901.326 4  26499681.774    26499684.825    26499682.077
        17.000           2.000
        -0.86415                  26765485.424                    26765485.333
         8.000  
 03  4 13  0  1  0.0000000  0  8G 5G10G30G 9G29G24G26G 7
 -19620256.338 8 -15288509.780 8  22420593.431    22420597.219    22420593.815
       314.000         210.000
 -21240953.519 8 -16551361.820 8  22228222.655    22228226.682    22228223.202
       249.000         261.000
  -7981651.054 7  -6219470.837 6  24669813.066    24669816.457    24669812.610
        46.000          28.000
   2241558.623 7   1746660.177 6  24363844.020    24363854.062    24363844.268
        45.000          30.000
  -5002430.790 7  -3897968.149 7  25034604.063    25034612.627    25034603.971
        32.000          33.000
  -6710964.336 7  -5229268.205 6  24752365.583    24752369.061    24752365.803
        39.000          18.000
  -2231580.440 6  -1738878.970 6  25207711.561    25207723.365    25207711.463
        29.000          19.000
   4245964.935 6   3308592.413 5  26508642.900    26508647.570    26508643.023
        17.000           5.000
 03  4 13  0  1 30.0000000  0 10G 5G10G30G 9G29G24G26G 7G17G 6
 -19660935.531 9 -15320207.864 8  22412852.555    22412856.268    22412852.993
       317.000         210.000
 -21217216.048 8 -16532865.064 8  22232739.689    22232743.758    22232740.242
       251.000         262.000
  -8069419.298 7  -6287861.699 6  24653111.195    24653114.614    24653110.517
        45.000          30.000
   2284481.230 7   1780106.075 6  24372012.161    24372022.205    24372012.098
        45.000          31.000
  -5051888.467 7  -3936506.329 6  25025192.328    25025200.718    25025192.176
        34.000          30.000
  -6639943.910 7  -5173927.601 6  24765880.235    24765883.732    24765880.354
        38.000          17.000
  -2272522.046 6  -1770781.147 6  25199920.217    25199932.274    25199919.920
        29.000          19.000
   4293263.693 5   3345448.426 5  26517640.774    26517648.801    26517641.558
         9.000           4.000
         0.10516        -0.24714  25612551.485    25612563.930    25612551.868
        15.000           3.000
        -0.38516        -0.36614  26743637.971    26743642.067    26743637.765
        10.000           3.000
 03  4 13  0  2  0.0000000  0 11G 5G10G30G 9G29G24G26G21G 7G17G 6
 -19701108.624 8 -15351511.583 8  22405207.716    22405211.603    22405208.117
       310.000         208.000
 -21192936.463 8 -16513945.875 8  22237359.770    22237364.157    22237360.267
       249.000         266.000
  -8156946.980 7  -6356065.103 6  24636455.289    24636458.664    24636454.780
        45.000          30.000
   2327474.379 7   1813606.948 7  24380193.407    24380203.557    24380193.492
        45.000          32.000
  -5101416.078 7  -3975099.028 6  25015767.485    25015775.593    25015767.234
        36.000          31.000
  -6569018.043 7  -5118660.682 6  24779377.030    24779380.482    24779376.912
        37.000          16.000
  -2313620.775 6  -1802805.731 6  25192098.909    25192111.106    25192098.848
        28.000          18.000
        -0.09516                  26371003.411                    26371003.720
        10.000  
   4340755.015 6   3382454.500 5  26526679.455    26526687.632    26526679.997
        11.000           8.000
    -46950.418 6    -36584.058 6  25603616.264    25603633.994    25603616.558
        15.000          10.000
    -57671.612 6    -44938.915 4  26732663.121    26732665.685    26732663.348
        10.000           1.000
 03  4 13  0  2 30.0000000  0  9G 5G10G30G 9G29G24G26G 7G17
 -19740787.429 8 -15382430.143 8  22397656.966    22397660.897    22397657.184
       306.000         204.000
 -21168128.692 8 -16494615.113 8  22242080.774    22242084.959    22242081.294
       256.000         268.000
  -8244244.740 7  -6424089.353 6  24619843.122    24619846.490    24619842.452
        46.000          31.000
   2370522.156 7   1847150.339 6  24388385.146    24388395.872    24388384.835
        43.000          30.000
  -5151024.482 7  -4013754.682 6  25006326.973    25006335.383    25006326.767
        36.000          31.000
  -6498201.352 7  -5063478.838 6  24792852.796    24792856.224    24792852.926
        37.000          15.000
  -2354888.480 6  -1834961.978 6  25184246.223    25184257.424    25184246.061
        30.000          16.000
   4388425.932 6   3419600.475 4  26535752.268    26535756.953    26535752.185
        15.000           2.000
    -93580.979 6    -72918.766 5  25594741.323    25594758.982    25594741.488
        14.000           9.000
 03  4 13  0  3  0.0000000  0 10G 5G10G30G 9G29G24G26G21G 7G17
 -19779955.904 8 -15412951.049 8  22390203.544    22390207.269    22390203.834
       306.000         203.000
 -21142779.221 8 -16474862.252 8  22246904.559    22246908.725    22246905.072
       259.000         266.000
  -8331295.855 7  -6491921.414 7  24603277.899    24603281.260    24603277.207
        48.000          32.000
   2413636.706 7   1880745.835 7  24396589.678    24396601.027    24396589.600
        42.000          32.000
  -5200696.798 7  -4052460.139 6  24996874.445    24996882.981    24996874.170
        37.000          30.000
  -6427481.130 7  -5008372.170 6  24806310.595    24806314.082    24806310.301
        36.000          16.000
  -2396308.816 6  -1867237.162 6  25176363.557    25176374.975    25176363.221
        28.000          15.000
        -1.02616                  26354960.674                    26354961.144
        11.000  
   4436291.498 6                  26544859.228                    26544860.006
        11.000  
   -139876.756 6   -108992.510 5  25585931.733    25585943.355    25585932.107
        17.000           4.000
 03  4 13  0  3 30.0000000  0  9G 5G10G30G 9G29G24G26G17G 6
 -19818591.727 8 -15443056.896 8  22382851.425    22382855.225    22382851.862
       302.000         208.000
 -21116867.781 8 -16454671.494 8  22251835.245    22251839.294    22251835.802
       260.000         261.000
  -8418076.692 7  -6559542.864 6  24586763.943    24586767.557    24586763.038
        47.000          31.000
   2456836.507 7   1914407.755 6  24404810.448    24404821.674    24404810.633
        43.000          31.000
  -5250409.748 7  -4091197.272 6  24987414.294    24987422.651    24987414.045
        36.000          31.000
  -6356837.799 7  -4953325.412 6  24819753.800    24819757.485    24819753.998
        35.000          16.000
  -2437859.182 6  -1899613.677 6  25168455.926    25168467.745    25168455.890
        25.000          15.000
   -185817.446 6   -144789.751 5  25577188.920    25577205.853    25577188.989
        16.000           9.000
        -0.13516         0.37114  26699527.239    26699529.065    26699527.321
        10.000           3.000
 03  4 13  0  4  0.0000000  0 10G 5G10G30G 9G29G24G26G 7G17G 6
 -19856723.464 8 -15472769.947 8  22375595.082    22375599.152    22375595.499
       298.000         211.000
 -21090425.362 8 -16434066.985 8  22256867.120    22256870.992    22256867.634
       258.000         257.000
  -8504614.734 7  -6626975.130 6  24570296.202    24570299.865    24570295.362
        45.000          31.000
   2500088.715 7   1948110.521 6  24413041.658    24413052.303    24413041.750
        43.000          29.000
  -5300191.053 7  -4129987.665 6  24977940.901    24977949.321    24977940.877
        35.000          31.000
  -6286302.610 7  -4898362.917 6  24833176.227    24833179.884    24833176.361
        34.000          16.000
  -2479568.047 6  -1932113.715 6  25160519.126    25160530.484    25160518.731
        28.000          15.000
        -0.88716        -0.63614  26563194.832    26563200.321    26563194.948
        15.000           2.000
   -231433.194 6   -180333.853 5  25568507.629    25568525.576    25568507.895
        17.000           9.000
    -58403.764 6    -45508.892 5  26688412.670    26688415.995    26688412.289
        10.000           6.000
 03  4 13  0  4 30.0000000  0 11G 5G10G30G 9G29G24G26G21G 7G17G 6
 -19894330.989 8 -15502074.525 8  22368438.581    22368442.633    22368438.990
       299.000         214.000
 -21063434.218 8 -16413034.900 8  22262003.207    22262007.398    22262003.713
       255.000         258.000
  -8590889.045 7  -6694201.873 6  24553878.814    24553882.481    24553877.745
        44.000          31.000
   2543409.568 7   1981866.778 6  24421285.339    24421296.670    24421285.196
        42.000          29.000
  -5350019.645 7  -4168814.919 6  24968458.949    24968467.109    24968458.881
        36.000          30.000
  -6215858.468 6  -4843471.365 6  24846580.959    24846584.545    24846580.959
        31.000          17.000
  -2521415.030 6  -1964721.376 6  25152555.595    25152566.707    25152555.516
        30.000          15.000
        -0.10016                  26331309.013                    26331309.813
        11.000  
     48473.665 6     37771.582 4  26572419.168    26572424.109    26572419.254
        12.000           2.000
   -276704.996 6   -215609.794 5  25559892.959    25559908.433    25559893.461
        17.000           8.000
   -116979.843 5    -91152.564 5  26677265.675    26677269.814    26677265.278
         9.000           5.000
 03  4 13  1 24 30.0000000  0  4G 6G26G29G10
         0.07817         0.25517  22792967.160    22792970.503    22792967.340
        48.000          32.000
        -0.61218        -0.24617  22043495.882    22043500.470    22043495.585
       107.000          91.000
        -0.29417        -0.49617  21916522.211    21916525.883    21916522.104
        93.000          86.000
        -0.95717        -0.06317  22435506.337    22435509.720    22435506.847
        78.000          53.000
 03  4 13  1 25  0.0000000  0 12G30G24G18G23G21G17G 9G 6G26G 5G29G10
        -0.49218         0.24418  21087117.407    21087121.322    21087116.911
       163.000         130.000
        -0.93416        -0.32914  24888843.080    24888844.819    24888843.371
        14.000           1.000
        -1.20716        -0.95616  23643115.224    23643122.693    23643115.216
        24.000          14.000
        -0.39316        -0.62816  24025845.772    24025854.663    24025845.709
        23.000          19.000
        -1.18116        -0.14615  23891478.006    23891483.611    23891478.290
        17.000           8.000
        -0.60316        -0.66316  23136601.558    23136607.378    23136602.344
        31.000          24.000
        -0.23116         0.12815  23853681.370    23853688.125    23853680.587
        17.000           6.000
    -75599.339 7    -58908.367 7  22778580.864    22778584.311    22778580.753
        47.000          32.000
    -36388.302 8    -28354.204 7  22036571.607    22036575.982    22036571.400
       111.000          91.000
        -1.20018        -0.21118  20804896.622    20804901.011    20804896.976
       285.000         202.000
    -22822.485 7    -17783.967 7  21912179.314    21912182.806    21912179.138
        91.000          84.000
     90380.512 7     70427.060 7  22452705.196    22452708.896    22452705.718
        76.000          55.000
 03  4 13  1 25 30.0000000  0 11G30G18G23G21G17G 9G 6G26G 5G29G10
    -17777.386 8    -13851.933 8  21083734.672    21083738.486    21083734.183
       165.000         129.000
    -87731.660 6    -68362.599 6  23626421.711    23626427.994    23626421.761
        23.000          13.000
    -92560.331 6    -72125.072 6  24008232.603    24008241.106    24008233.118
        25.000          21.000
     -8890.731 6     -6926.837 5  23889786.692    23889792.233    23889786.728
        18.000           9.000
     -3713.465 6     -2893.660 6  23135894.242    23135900.628    23135894.953
        27.000          25.000
     26982.534 6     21025.526 5  23858816.811    23858822.099    23858816.627
        20.000           9.000
   -151196.247 7   -117815.036 7  22764195.202    22764198.808    22764194.697
        47.000          32.000
    -72558.586 8    -56538.752 7  22029688.629    22029692.822    22029688.447
       116.000          92.000
     48052.044 8     37443.851 8  20814040.536    20814045.335    20814040.958
       278.000         201.000
    -45271.689 7    -35276.802 7  21907907.262    21907910.992    21907907.259
        93.000          87.000
    180940.009 7    140992.903 7  22469938.079    22469941.772    22469938.376
        73.000          55.000
 03  4 13  1 26  0.0000000  0 11G30G18G23G21G17G 9G 6G26G 5G29G10
    -35033.829 8    -27298.568 8  21080451.013    21080454.650    21080450.441
       168.000         129.000
   -175173.784 6   -136499.505 6  23609781.637    23609789.096    23609781.713
        25.000          15.000
   -184885.863 6   -144066.995 6  23990663.096    23990671.679    23990663.679
        24.000          21.000
    -17698.011 6    -13789.415 5  23888111.190    23888115.062    23888110.976
        17.000           8.000
     -7291.798 6     -5681.835 6  23135212.944    23135219.558    23135213.216
        27.000          26.000
     53752.572 6     41885.042 6  23863910.128    23863917.386    23863910.533
        23.000          14.000
   -226770.725 7   -176704.239 7  22749814.009    22749817.463    22749813.978
        47.000          33.000
   -108491.031 8    -84537.967 7  22022850.879    22022854.911    22022850.518
       119.000          92.000
     96539.039 8     75225.901 8  20823267.562    20823272.079    20823267.969
       279.000         199.000
    -67327.669 7    -52463.232 7  21903710.194    21903713.773    21903710.162
        92.000          86.000
    271692.691 7    211709.267 7  22487207.609    22487211.357    22487208.215
        71.000          53.000
 03  4 13  1 26 30.0000000  0 11G30G18G23G21G17G 9G 6G26G 5G29G10
    -51770.476 8    -40340.167 8  21077266.107    21077269.814    21077265.612
       168.000         129.000
   -262325.994 6   -204410.519 6  23593197.637    23593204.636    23593197.463
        24.000          14.000
   -276975.289 6   -215825.038 6  23973138.758    23973148.085    23973139.384
        23.000          21.000
    -26425.228 6    -20589.647 5  23886449.818    23886453.654    23886450.256
        17.000           6.000
    -10738.169 6     -8367.183 6  23134558.012    23134564.360    23134558.013
        29.000          28.000
     80308.414 6     62577.560 6  23868964.448    23868972.681    23868964.097
        28.000          22.000
   -302321.228 7   -235574.746 7  22735437.292    22735440.577    22735437.434
        47.000          34.000
   -144183.841 8   -112350.462 7  22016058.562    22016062.738    22016058.268
       121.000          93.000
    145456.850 8    113343.667 8  20832576.065    20832580.705    20832576.459
       274.000         197.000
    -88988.631 7    -69341.850 7  21899588.297    21899591.923    21899588.309
        94.000          88.000
    362635.424 7    282573.737 7  22504513.498    22504517.104    22504514.064
        69.000          51.000
 03  4 13  1 27  0.0000000  0 12G30G24G18G23G21G17G 9G 6G26G 5G29G10
    -68015.002 8    -52998.296 8  21074174.917    21074178.689    21074174.534
       168.000         130.000
        -0.61116                  24923571.212                    24923571.163
        14.000  
   -349213.564 6   -272115.177 6  23576663.564    23576670.304    23576663.973
        25.000          14.000
   -368854.070 6   -287419.060 6  23955655.247    23955664.318    23955655.708
        23.000          21.000
    -35101.886 6    -27350.461 5  23884799.016    23884803.294    23884799.029
        18.000           8.000
    -14081.808 6    -10972.478 6  23133921.134    23133926.924    23133921.592
        27.000          26.000
    106621.631 6     83080.847 4  23873971.037    23873978.688    23873971.286
        11.000           1.000
   -377873.264 7   -294446.441 7  22721060.095    22721063.590    22721060.084
        44.000          36.000
   -179662.169 8   -139995.827 7  22009307.131    22009311.456    22009306.734
       124.000          95.000
    194775.590 8    151773.826 8  20841961.596    20841966.000    20841961.945
       281.000         200.000
   -110279.915 7    -85932.414 7  21895536.721    21895540.263    21895536.533
        94.000          86.000
    453737.831 7    353562.630 7  22521849.600    22521853.383    22521850.250
        67.000          51.000
 03  4 13  1 27 30.0000000  0 10G30G18G23G21G17G 6G26G 5G29G10
    -83769.145 8    -65274.309 8  21071177.037    21071180.891    21071176.441
       168.000         131.000
   -435836.407 6   -339613.528 6  23560179.724    23560186.276    23560180.093
        25.000          14.000
   -460521.802 6   -358848.730 6  23938211.648    23938220.790    23938212.217
        24.000          22.000
    -43731.314 6    -34074.453 6  23883155.728    23883162.298    23883156.302
        17.000          10.000
    -17326.488 6    -13500.672 6  23133302.739    23133308.805    23133303.549
        25.000          23.000
   -453426.612 7   -353319.163 7  22706682.551    22706686.263    22706682.274
        45.000          36.000
   -214925.440 8   -167473.618 7  22002596.833    22002601.027    22002596.522
       128.000          96.000
    244491.020 8    190513.109 8  20851421.951    20851426.558    20851422.395
       275.000         200.000
   -131201.044 7   -102234.550 7  21891555.430    21891558.890    21891555.201
        95.000          85.000
    544995.307 7    424672.356 7  22539215.210    22539219.208    22539215.884
        64.000          51.000
 03  4 13  1 28  0.0000000  0 11G30G18G23G21G17G24G 6G26G 5G29G10
    -99017.923 8    -77156.539 8  21068275.357    21068279.312    21068274.805
       169.000         132.000
   -522177.292 6   -406892.084 6  23543749.180    23543755.977    23543749.495
        26.000          14.000
   -551961.035 6   -430100.320 6  23920811.295    23920820.868    23920811.936
        25.000          23.000
    -52300.362 6    -40751.432 5  23881525.709    23881529.978    23881526.123
        18.000           8.000
    -20459.080 6    -15941.526 6  23132707.198    23132713.367    23132707.677
        26.000          24.000
        -0.55116        -0.36514  24940743.888    24940747.073    24940744.086
        16.000           2.000
   -528964.006 7   -412179.460 7  22692308.413    22692311.769    22692307.984
        45.000          35.000
   -249956.179 8   -194770.219 7  21995930.770    21995934.740    21995930.522
       133.000          96.000
    294615.593 8    229571.193 8  20860960.278    20860964.829    20860960.713
       273.000         197.000
   -151734.645 7   -118234.718 7  21887647.981    21887651.487    21887648.020
        93.000          84.000
    636419.999 7    495912.376 7  22556612.711    22556616.863    22556613.248
        63.000          51.000
 03  4 13  1 28 30.0000000  0 12G30G 9G18G23G21G17G24G 6G26G 5G29G10
   -113754.575 8    -88639.708 8  21065471.100    21065475.174    21065470.718
       170.000         135.000
        -0.39216        -0.33616  23888724.673    23888732.682    23888724.944
        22.000          10.000
   -608227.081 6   -473943.703 6  23527374.869    23527381.670    23527374.805
        26.000          14.000
   -643162.515 6   -501166.575 6  23903456.178    23903465.280    23903456.619
        25.000          21.000
    -60803.667 6    -47377.210 5  23879907.433    23879910.516    23879907.998
        17.000           7.000
    -23474.242 6    -18290.871 6  23132132.947    23132140.141    23132133.422
        24.000          27.000
     44888.378 6     34977.997 4  24949285.656    24949289.063    24949285.841
        13.000           2.000
   -604476.239 7   -471020.137 7  22677938.980    22677942.282    22677938.934
        49.000          35.000
   -284744.902 8   -221878.235 7  21989310.652    21989314.516    21989310.466
       136.000          97.000
    345153.909 8    268951.687 8  20870577.586    20870582.019    20870578.047
       272.000         197.000
   -171871.353 7   -133925.612 7  21883816.080    21883819.996    21883816.177
        95.000          90.000
    728016.475 7    567286.248 7  22574042.912    22574047.023    22574043.420
        61.000          47.000
 03  4 13  1 29  0.0000000  0 12G30G 9G18G23G21G17G24G 6G26G 5G29G10
   -127926.650 8    -99682.954 8  21062774.286    21062778.366    21062773.867
       167.000         136.000
     25441.729 6     19824.500 5  23893566.415    23893574.867    23893566.250
        19.000           9.000
   -693930.896 6   -540725.474 6  23511065.600    23511072.529    23511065.945
        26.000          15.000
   -734071.731 6   -572004.990 6  23886157.662    23886166.010    23886157.939
        26.000          22.000
    -69190.382 6    -53912.115 5  23878310.832    23878315.460    23878311.760
        17.000           9.000
    -26321.609 6    -20509.485 6  23131590.537    23131597.749    23131591.176
        22.000          24.000
     89676.866 6                  24957808.737                    24957808.575
        10.000  
   -679908.653 7   -529798.632 7  22663584.813    22663588.104    22663584.869
        55.000          35.000
   -319236.720 8   -248754.897 7  21982746.944    21982750.834    21982746.694
       135.000          97.000
    396156.064 8    308693.601 8  20880282.656    20880287.350    20880283.007
       268.000         195.000
   -191556.626 7   -149264.738 7  21880070.068    21880073.966    21880070.002
        95.000          91.000
    819834.572 7    638832.820 7  22591515.530    22591519.120    22591516.146
        61.000          42.000
 03  4 13  1 29 30.0000000  0 11G30G 9G18G23G21G17G 6G26G 5G29G10
   -141621.366 8   -110354.237 8  21060168.337    21060172.352    21060167.865
       168.000         137.000
     50623.956 6     39446.813 6  23898358.232    23898367.765    23898358.151
        20.000          12.000
   -779374.467 6   -607304.583 6  23494805.823    23494812.467    23494805.745
        25.000          14.000
   -824773.712 6   -642681.938 6  23868897.353    23868906.410    23868897.563
        27.000          22.000
    -77548.978 6    -60425.113 6  23876720.855    23876725.257    23876721.654
        17.000          10.000
    -29089.524 6    -22666.174 6  23131064.653    23131070.035    23131065.135
        26.000          20.000
   -755346.099 7   -588581.047 7  22649229.502    22649232.868    22649229.592
        57.000          36.000
   -353516.138 8   -275466.053 8  21976223.586    21976227.779    21976223.395
       134.000         100.000
    447532.624 8    348727.264 8  20890059.643    20890063.968    20890060.051
       271.000         195.000
   -210874.997 7   -164317.969 7  21876393.808    21876397.621    21876393.795
        95.000          90.000
    911784.395 7    710482.044 7  22609013.034    22609016.414    22609013.600
        61.000          40.000
 03  4 13  1 30  0.0000000  0 12G30G 9G18G23G21G17G24G 6G26G 5G29G10
   -154834.626 8   -120650.364 8  21057654.062    21057658.044    21057653.623
       173.000         137.000
     75549.919 6     58869.557 6  23903101.798    23903111.003    23903101.967
        18.000          10.000
   -864550.506 6   -673674.766 6  23478596.652    23478603.486    23478596.712
        26.000          15.000
   -915262.035 6   -713192.338 6  23851678.022    23851686.803    23851678.485
        28.000          22.000
    -85877.168 6    -66914.427 5  23875135.750    23875140.031    23875136.393
        17.000           9.000
    -31776.164 6    -24759.533 6  23130553.182    23130558.960    23130553.529
        25.000          22.000
        -0.27316        -0.21915  24974748.161    24974754.759    24974748.477
        10.000           5.000
   -830782.200 7   -647362.411 7  22634874.594    22634877.973    22634874.491
        61.000          37.000
   -387576.597 8   -302006.588 8  21969741.971    21969746.332    21969741.731
       133.000         104.000
    499285.342 8    389054.033 8  20899907.409    20899912.418    20899907.799
       262.000         196.000
   -229820.269 7   -179080.475 7  21872788.673    21872792.272    21872788.743
        96.000          87.000
   1003867.311 7    782234.970 7  22626535.736    22626539.314    22626536.544
        61.000          40.000
 03  4 13  1 30 30.0000000  0 12G30G 9G18G23G21G17G24G 6G26G 5G29G10
   -167549.067 8   -130557.809 8  21055234.684    21055238.696    21055234.255
       172.000         135.000
    100236.358 6     78105.781 6  23907799.739    23907807.836    23907799.931
        21.000          10.000
   -949440.420 6   -739822.130 6  23462442.636    23462448.567    23462442.735
        26.000          15.000
  -1005516.366 6   -783520.042 6  23834502.885    23834511.961    23834503.493
        29.000          24.000
    -94158.995 6    -73367.619 5  23873559.632    23873563.543    23873559.883
        19.000           8.000
    -34365.272 6    -26776.894 6  23130059.569    23130066.973    23130060.034
        22.000          23.000
     44256.483 6                  24983171.336                    24983171.713
        12.000  
   -906197.295 7   -706127.406 7  22620523.731    22620526.815    22620523.501
        63.000          38.000
   -421398.186 8   -328360.991 8  21963306.080    21963310.185    21963305.844
       135.000         103.000
    551429.444 8    429685.774 8  20909830.495    20909835.001    20909830.947
       264.000         193.000
   -248372.592 7   -193536.783 7  21869258.281    21869261.704    21869258.189
        94.000          86.000
   1096098.210 7    854103.208 7  22644086.844    22644090.258    22644087.620
        63.000          41.000
 03  4 13  1 31  0.0000000  0 11G30G 9G18G23G21G17G 6G26G 5G29G10
   -179740.732 8   -140057.898 8  21052914.669    21052918.700    21052914.175
       173.000         135.000
    124707.210 6     97174.108 6  23912455.056    23912464.880    23912454.935
        19.000          16.000
  -1034017.276 6   -805725.411 6  23446347.374    23446353.258    23446347.487
        27.000          15.000
  -1095510.998 6   -853645.379 6  23817377.603    23817386.299    23817378.232
        29.000          24.000
   -102372.023 6    -79767.186 6  23871996.648    23872000.608    23871996.517
        18.000          10.000
    -36834.646 6    -28700.983 6  23129590.512    23129596.178    23129590.413
        26.000          21.000
   -981565.051 7   -764855.515 7  22606181.719    22606184.787    22606181.378
        67.000          42.000
   -454954.325 8   -354508.553 8  21956920.600    21956924.518    21956920.352
       135.000         102.000
    603986.645 8    470639.416 8  20919831.728    20919836.232    20919832.115
       263.000         189.000
   -266505.420 7   -207666.213 7  21865807.805    21865811.095    21865807.506
        97.000          86.000
   1188498.557 7    926103.481 7  22661670.217    22661673.533    22661670.748
        65.000          42.000
 03  4 13  1 31 30.0000000  0 12G30G 9G18G23G21G17G24G 6G26G 5G29G10
   -191439.532 8   -149173.943 8  21050688.543    21050692.533    21050688.067
       173.000         135.000
    148931.593 6    116050.278 6  23917065.984    23917074.814    23917066.272
        22.000          12.000
  -1118309.147 6   -871406.623 6  23430306.050    23430312.277    23430306.236
        27.000          16.000
  -1185273.471 6   -923589.768 6  23800295.496    23800304.423    23800296.008
        29.000          23.000
   -110547.509 6    -86137.531 6  23870440.789    23870445.686    23870439.561
        19.000          12.000
    -39216.112 6    -30556.539 6  23129137.320    23129142.457    23129137.805
        25.000          20.000
        -0.28116        -0.86914  24999930.102    24999933.442    24999929.903
        12.000           2.000
  -1056913.060 7   -823568.238 7  22591843.278    22591846.518    22591842.858
        66.000          43.000
   -488272.211 8   -380470.466 8  21950580.260    21950584.265    21950580.039
       134.000         102.000
    656924.637 8    511889.774 8  20929905.524    20929910.080    20929905.890
       260.000         189.000
   -284246.523 8   -221490.403 7  21862431.836    21862435.191    21862431.862
       100.000          89.000
   1281036.137 7    998210.694 7  22679279.599    22679282.905    22679280.118
        67.000          42.000
 03  4 13  1 32  0.0000000  0 12G30G 9G18G23G21G17G24G 6G26G 5G29G10
   -202642.013 8   -157903.257 8  21048556.941    21048560.869    21048556.366
       175.000         134.000
    172912.986 6    134737.203 6  23921628.613    23921637.580    23921628.577
        19.000          12.000
  -1202310.859 6   -936861.993 6  23414320.910    23414326.650    23414321.190
        27.000          15.000
  -1274797.365 6   -993347.907 6  23783259.216    23783268.201    23783259.589
        31.000          25.000
   -118683.327 6    -92476.941 6  23868892.460    23868897.303    23868892.582
        19.000          12.000
    -41507.335 6    -32341.799 6  23128700.503    23128707.048    23128700.907
        23.000          21.000
     43786.973 6     34119.022 4  25008261.845    25008266.249    25008261.565
        11.000           2.000
  -1132235.308 7   -882260.884 7  22577510.001    22577513.014    22577509.820
        66.000          43.000
   -521345.789 8   -406242.010 8  21944286.341    21944290.529    21944286.100
       131.000         102.000
    710244.637 8    553437.804 8  20940051.979    20940056.567    20940052.390
       256.000         188.000
   -301589.842 7   -235004.623 7  21859131.308    21859134.783    21859131.311
        99.000          89.000
   1373711.958 7   1070425.626 7  22696915.089    22696918.398    22696915.602
        66.000          40.000
 03  4 13  1 32 30.0000000  0 12G30G 9G18G23G21G17G24G 6G26G 5G29G10
   -213349.020 8   -166246.492 8  21046519.620    21046523.483    21046519.242
       174.000         134.000
    196650.146 6    153233.797 5  23926145.790    23926154.676    23926146.147
        18.000           7.000
  -1286019.909 6  -1002089.029 6  23398391.263    23398397.319    23398391.482
        28.000          16.000
  -1364082.061 6  -1062919.814 6  23766268.624    23766276.572    23766269.119
        30.000          23.000
   -126781.977 6    -98787.397 6  23867352.034    23867355.119    23867351.988
        20.000          10.000
    -43710.916 6    -34058.779 6  23128281.691    23128287.528    23128281.760
        26.000          22.000
     87410.882 6                  25016563.817                    25016563.675
        11.000  
  -1207530.051 7   -940932.094 7  22563181.917    22563184.824    22563182.279
        68.000          42.000
   -554173.322 8   -431821.831 8  21938039.398    21938043.496    21938039.107
       130.000         100.000
    763943.510 8    595281.053 8  20950270.438    20950275.096    20950270.721
       253.000         186.000
   -318533.866 8   -248207.703 7  21855906.962    21855910.238    21855906.905
       100.000          88.000
   1466522.733 7   1142745.711 7  22714576.167    22714579.585    22714576.901
        62.000          40.000
 03  4 13  1 33  0.0000000  0 11G30G 9G18G23G21G17G 6G26G 5G29G10
   -223532.341 8   -174181.660 8  21044581.886    21044585.918    21044581.523
       174.000         136.000
    220171.133 6    171562.061 6  23930621.872    23930629.939    23930621.845
        20.000          11.000
  -1369406.253 6  -1067064.539 6  23382522.135    23382528.057    23382522.344
        29.000          18.000
  -1453096.464 6  -1132281.002 6  23749329.174    23749337.172    23749329.257
        31.000          23.000
   -134816.332 6   -105047.775 6  23865821.909    23865826.991    23865822.153
        18.000          12.000
    -45800.271 6    -35686.740 6  23127884.494    23127889.278    23127885.475
        27.000          20.000
  -1282766.512 7   -999557.896 7  22548864.734    22548867.837    22548864.774
        67.000          41.000
   -586723.891 8   -457185.840 8  21931845.379    21931849.265    21931845.171
       131.000         101.000
    818047.429 8    637439.929 8  20960566.193    20960570.804    20960566.623
       251.000         184.000
   -335047.836 8   -261075.684 7  21852764.558    21852767.798    21852764.301
       103.000          90.000
   1559494.245 7   1215191.047 7  22732268.067    22732271.691    22732268.576
        61.000          40.000
 03  4 13  1 33 30.0000000  0 11G30G 9G18G23G21G17G 6G26G 5G29G10
   -233216.572 8   -181727.950 8  21042739.009    21042743.215    21042738.482
       173.000         136.000
    243451.398 6    189702.752 5  23935051.252    23935059.341    23935051.208
        15.000           7.000
  -1452492.152 6  -1131805.964 6  23366710.961    23366716.957    23366710.976
        28.000          18.000
  -1541862.914 6  -1201448.952 6  23732436.683    23732445.340    23732436.849
        30.000          24.000
   -142812.547 6   -111278.419 6  23864300.184    23864305.095    23864300.884
        20.000          13.000
    -47801.479 6    -37246.022 6  23127503.039    23127508.180    23127503.870
        24.000          18.000
  -1357966.744 7  -1058155.475 7  22534554.548    22534557.694    22534553.996
        67.000          40.000
   -619019.282 8   -482351.009 8  21925699.719    21925703.576    21925699.546
       131.000         101.000
    872529.433 8    679893.416 8  20970933.754    20970938.361    20970934.222
       249.000         182.000
   -351153.991 8   -273625.879 7  21849699.449    21849702.926    21849699.667
       103.000          91.000
   1652599.397 7   1287740.514 7  22749985.456    22749989.125    22749985.739
        60.000          39.000
 03  4 13  1 34  0.0000000  0 12G 9G18G23G30G21G17G24G 6G26G 5G29G10
    266512.005 6    207672.435 6  23939438.889    23939448.544    23939438.557
        18.000          14.000
  -1535254.068 6  -1196295.171 6  23350961.772    23350966.859    23350961.702
        29.000          17.000
  -1630357.646 6  -1270405.251 6  23715596.415    23715604.922    23715597.073
        31.000          25.000
   -242380.092 8   -188868.473 8  21040995.332    21040999.452    21040994.810
       171.000         134.000
   -150750.170 6   -117463.412 6  23862790.448    23862793.818    23862791.174
        20.000          11.000
    -49694.438 6    -38720.948 6  23127142.905    23127147.758    23127143.667
        25.000          17.000
        -0.54716                  25041306.259                    25041305.984
        14.000  
  -1433106.552 7  -1116705.977 7  22520256.129    22520259.002    22520255.909
        67.000          39.000
   -651035.346 8   -507298.522 7  21919607.051    21919611.058    21919606.741
       125.000          99.000
    927408.979 8    722656.675 8  20981377.100    20981381.609    20981377.508
       246.000         180.000
   -366828.228 8   -285839.514 7  21846716.684    21846720.117    21846716.428
       104.000          90.000
   1745857.535 7   1360409.192 7  22767731.914    22767735.373    22767732.238
        57.000          36.000
 03  4 13  1 34 30.0000000  0 11G 9G18G23G30G21G17G 6G26G 5G29G10
    289328.630 6    225451.838 6  23943781.538    23943789.906    23943780.977
        23.000          15.000
  -1617713.614 6  -1260548.789 6  23335269.707    23335275.204    23335269.943
        31.000          19.000
  -1718601.968 6  -1339166.348 6  23698803.439    23698811.729    23698803.925
        31.000          25.000
   -251046.843 8   -195621.870 8  21039346.196    21039350.280    21039345.740
       171.000         135.000
   -158654.476 6   -123622.464 6  23861285.796    23861289.990    23861286.822
        19.000          12.000
    -51504.637 6    -40131.405 6  23126798.395    23126803.297    23126799.065
        27.000          18.000
  -1508207.573 7  -1175226.251 7  22505964.874    22505967.713    22505965.290
        66.000          40.000
   -682793.262 8   -532044.886 8  21913563.589    21913567.532    21913563.371
       122.000         100.000
    982659.983 8    765709.386 8  20991890.862    20991895.545    20991891.216
       242.000         179.000
   -382092.087 8   -297733.383 7  21843812.151    21843815.352    21843812.097
       107.000          90.000
   1839242.347 7   1433176.583 7  22785502.275    22785505.647    22785502.983
        55.000          34.000
 03  4 13  1 35  0.0000000  0 11G 9G18G23G30G21G17G 6G26G 5G29G10
    311903.931 6    243042.995 6  23948076.862    23948085.700    23948076.570
        21.000          12.000
  -1699865.514 6  -1324562.862 6  23319636.153    23319641.994    23319636.030
        30.000          18.000
  -1806590.353 7  -1407727.917 6  23682059.188    23682067.045    23682060.084
        32.000          26.000
   -259213.933 8   -201985.932 8  21037792.194    21037796.228    21037791.832
       175.000         138.000
   -166523.890 6   -129754.306 6  23859788.243    23859792.065    23859788.712
        20.000          11.000
    -53230.612 6    -41476.220 6  23126469.474    23126474.949    23126469.753
        25.000          17.000
  -1583264.136 7  -1233711.880 7  22491681.974    22491685.011    22491682.056
        65.000          41.000
   -714287.312 8   -556585.641 8  21907570.473    21907574.424    21907570.180
       118.000         101.000
   1038283.247 8    809052.164 8  21002475.618    21002480.245    21002475.979
       240.000         177.000
   -396940.009 8   -309303.140 7  21840986.487    21840989.893    21840986.636
       106.000          91.000
   1932754.567 7   1506043.251 7  22803296.932    22803300.459    22803297.580
        53.000          33.000
 03  4 13  1 35 30.0000000  0 12G 9G18G23G30G21G17G24G 6G26G 5G29G10
    334268.831 6    260470.231 5  23952332.949    23952342.027    23952333.141
        17.000           8.000
  -1781675.992 7  -1388310.904 6  23304068.225    23304073.448    23304068.167
        33.000          20.000
  -1894290.279 6  -1476064.857 6  23665369.670    23665377.320    23665370.485
        30.000          25.000
   -266850.796 8   -207936.821 8  21036339.016    21036343.061    21036338.603
       174.000         137.000
   -174329.035 6   -135836.084 6  23858303.003    23858305.947    23858303.505
        21.000          10.000
    -54842.864 6    -42732.431 6  23126163.205    23126167.856    23126163.598
        26.000          16.000
        -1.05716                  25065794.947                    25065794.812
        10.000  
  -1658242.922 7  -1292136.905 7  22477413.911    22477417.065    22477413.754
        66.000          42.000
   -745484.147 8   -580894.793 8  21901633.829    21901637.691    21901633.551
       116.000         101.000
   1094307.124 8    852707.113 8  21013136.802    21013141.297    21013137.254
       245.000         177.000
   -411339.148 8   -320523.196 7  21838246.433    21838249.890    21838246.199
       105.000          92.000
   2026422.497 7   1579031.249 7  22821121.503    22821124.960    22821121.969
        54.000          34.000
 03  4 13  1 36  0.0000000  0 11G 9G18G23G30G21G17G 6G26G 5G29G10
    356393.901 6    277710.753 6  23956543.369    23956552.105    23956543.284
        24.000          18.000
  -1863172.682 7  -1451814.513 6  23288559.600    23288564.467    23288559.566
        33.000          18.000
  -1981728.301 6  -1544197.590 6  23648730.187    23648738.043    23648730.510
        31.000          24.000
   -273986.776 8   -213497.327 8  21034981.039    21034985.292    21034980.539
       171.000         138.000
   -182100.631 6   -141891.744 6  23856823.869    23856826.810    23856823.927
        20.000          10.000
    -56372.455 6    -43924.215 6  23125871.735    23125876.719    23125871.844
        28.000          17.000
  -1733170.717 7  -1350522.210 7  22463155.826    22463158.756    22463155.571
        68.000          42.000
   -776410.782 8   -604993.401 8  21895748.606    21895752.385    21895748.272
       115.000         100.000
   1150699.725 8    896649.378 8  21023868.008    21023872.432    21023868.372
       244.000         175.000
   -425316.666 8   -331414.730 7  21835586.648    21835589.893    21835586.780
       107.000          91.000
   2120214.264 7   1652115.742 7  22838969.718    22838973.038    22838970.168
        56.000          34.000
 03  4 13  1 36 30.0000000  0 12G 9G18G23G30G21G17G24G 6G26G 5G29G10
    378280.927 6    294765.627 6  23960708.269    23960716.124    23960707.864
        20.000          11.000
  -1944350.925 7  -1515069.865 6  23273111.402    23273116.588    23273111.232
        34.000          20.000
  -2068900.150 6  -1612123.049 6  23632141.352    23632148.805    23632141.757
        31.000          26.000
   -280619.661 8   -218665.708 8  21033718.734    21033723.011    21033718.272
       172.000         142.000
   -189837.646 6   -147920.426 6  23855351.224    23855354.606    23855350.867
        21.000          10.000
    -57818.517 6    -45050.922 6  23125596.186    23125601.537    23125596.182
        25.000          17.000
        -0.09716                  25081986.593                    25081986.297
        11.000  
  -1808042.491 7  -1408863.855 7  22448908.350    22448911.210    22448908.383
        69.000          43.000
   -807061.974 8   -628877.387 8  21889915.743    21889919.646    21889915.402
       114.000         100.000
   1207461.260 8    940879.127 8  21034669.416    21034673.813    21034669.755
       244.000         174.000
   -438867.635 8   -341973.880 7  21833008.000    21833011.151    21833008.019
       110.000          91.000
   2214129.703 7   1725296.605 7  22856841.257    22856844.690    22856841.823
        54.000          36.000
 03  4 13  1 37  0.0000000  0 11G 9G18G23G30G21G17G 6G26G 5G29G10
    399945.391 6    311647.057 6  23964831.024    23964839.490    23964831.244
        19.000          10.000
  -2025193.096 7  -1578063.470 6  23257727.365    23257733.282    23257727.607
        34.000          21.000
  -2155787.980 7  -1679827.406 6  23615607.180    23615614.500    23615607.406
        33.000          26.000
   -286734.430 8   -223430.387 8  21032555.144    21032559.167    21032554.687
       174.000         142.000
   -197525.836 6   -153911.079 6  23853888.220    23853891.401    23853888.055
        23.000          10.000
    -59166.972 6    -46101.584 6  23125339.489    23125344.850    23125339.391
        26.000          17.000
  -1882840.101 7  -1467147.703 7  22434674.651    22434677.664    22434674.740
        67.000          44.000
   -837419.625 8   -652532.635 8  21884138.796    21884142.826    21884138.519
       114.000         102.000
   1264604.953 8    985406.659 8  21045543.454    21045548.079    21045543.815
       241.000         174.000
   -451974.315 8   -352186.841 7  21830513.929    21830517.041    21830513.869
       113.000          91.000
   2308182.332 7   1798584.370 7  22874738.813    22874742.293    22874739.305
        53.000          36.000
 03  4 13  1 37 30.0000000  0 11G 9G18G23G30G21G17G 6G26G 5G29G10
    421357.174 6    328331.680 6  23968905.570    23968913.608    23968905.115
        22.000          13.000
  -2105727.789 7  -1640817.656 6  23242401.757    23242407.576    23242401.902
        33.000          20.000
  -2242420.024 7  -1747332.568 6  23599121.152    23599128.526    23599121.588
        32.000          27.000
   -292361.846 8   -227815.354 8  21031484.235    21031488.269    21031483.838
       175.000         140.000
   -205197.293 6   -159888.713 5  23852427.854    23852430.795    23852427.968
        21.000           9.000
    -60449.938 6    -47101.203 6  23125095.532    23125100.398    23125095.475
        26.000          17.000
  -1957591.723 7  -1525395.718 7  22420449.769    22420452.974    22420449.369
        68.000          46.000
   -867511.672 8   -675980.917 8  21878412.512    21878416.562    21878412.265
       118.000         107.000
   1322097.857 8   1030206.304 8  21056483.937    21056488.588    21056484.362
       236.000         172.000
   -464665.024 8   -362075.673 7  21828098.873    21828101.970    21828098.956
       111.000          90.000
   2402339.460 7   1871953.558 7  22892656.193    22892659.686    22892656.849
        52.000          35.000
 03  4 13  1 38  0.0000000  0 12G 9G18G23G30G21G17G24G 6G26G 5G29G10
    442534.270 6    344833.445 6  23972934.995    23972942.805    23972934.659
        19.000          10.000
  -2185934.083 7  -1703316.077 6  23227139.002    23227144.205    23227138.975
        33.000          19.000
  -2328775.082 6  -1814621.968 6  23582687.869    23582695.321    23582688.351
        31.000          26.000
   -297483.177 8   -231805.905 8  21030509.545    21030513.717    21030508.987
       175.000         142.000
   -212834.329 6   -165839.530 5  23850974.406    23850977.582    23850974.342
        20.000           8.000
    -61650.518 6    -48036.624 6  23124866.664    23124871.926    23124866.375
        23.000          16.000
        -1.19915                  25106069.702                    25106069.962
         9.000  
  -2032275.875 7  -1583591.163 7  22406237.812    22406241.005    22406237.586
        69.000          45.000
   -897316.801 8   -699205.625 8  21872740.884    21872744.856    21872740.743
       122.000         110.000
   1379956.401 8   1075290.861 8  21067494.147    21067498.497    21067494.552
       239.000         168.000
   -476918.620 8   -371623.893 7  21825767.028    21825770.161    21825766.852
       109.000          91.000
   2496617.330 7   1945416.832 7  22910596.858    22910600.302    22910597.339
        54.000          36.000
 03  4 13  1 38 30.0000000  0 11G 9G18G23G30G21G17G 6G26G 5G29G10
    463471.861 6    361148.627 6  23976918.700    23976927.766    23976918.628
        19.000          15.000
  -2265814.114 7  -1765560.085 6  23211938.534    23211943.559    23211938.547
        35.000          20.000
  -2414855.521 7  -1881697.246 6  23566306.970    23566314.501    23566307.408
        33.000          28.000
   -302103.734 8   -235406.249 8  21029630.113    21029634.441    21029629.604
       175.000         144.000
   -220443.394 6   -171768.529 5  23849526.674    23849530.054    23849526.790
        20.000           9.000
    -62774.869 6    -48912.653 6  23124652.553    23124658.139    23124652.638
        23.000          17.000
  -2106894.993 7  -1641735.922 7  22392038.502    22392041.398    22392038.734
        72.000          44.000
   -926837.347 8   -722208.579 8  21867123.242    21867127.216    21867122.942
       125.000         110.000
   1438173.240 8   1120654.615 8  21078572.723    21078576.876    21078573.083
       243.000         167.000
   -488737.817 8   -380833.617 7  21823517.842    21823521.078    21823517.651
       108.000          93.000
   2591008.366 7   2018968.289 7  22928559.063    22928562.472    22928559.642
        56.000          36.000
 03  4 13  1 39  0.0000000  0 11G 9G18G23G30G21G17G 6G26G 5G29G10
    484141.865 6    377255.260 6  23980852.812    23980861.038    23980852.877
        22.000          16.000
  -2345393.874 7  -1827570.059 6  23196794.969    23196800.010    23196794.724
        36.000          21.000
  -2500687.306 7  -1948578.811 6  23549974.056    23549980.727    23549974.775
        34.000          28.000
   -306252.032 8   -238638.624 8  21028840.792    21028845.042    21028840.432
       174.000         143.000
   -228053.849 6   -177698.636 5  23848078.540    23848080.876    23848079.343
        19.000           7.000
    -63852.255 6    -49752.088 6  23124447.563    23124453.102    23124448.051
        24.000          18.000
  -2181474.475 7  -1699849.793 7  22377846.475    22377849.370    22377846.495
        75.000          43.000
   -956098.759 8   -745009.612 8  21861554.876    21861558.870    21861554.493
       127.000         110.000
   1496718.018 8   1166273.904 8  21089713.113    21089717.716    21089713.523
       233.000         169.000
   -500148.537 8   -389725.050 7  21821346.298    21821349.777    21821346.264
       108.000          95.000
   2685482.314 7   2092584.356 7  22946536.938    22946540.294    22946537.499
        56.000          35.000
 03  4 13  1 39 30.0000000  0 11G 9G18G23G30G21G17G 6G26G 5G29G10
    504571.156 6    393174.369 6  23984740.114    23984748.035    23984740.107
        20.000          14.000
  -2424644.583 7  -1889323.621 6  23181713.847    23181718.629    23181713.997
        39.000          23.000
  -2586241.558 7  -2015244.205 6  23533693.221    23533700.457    23533693.503
        35.000          29.000
   -309901.423 8   -241482.252 8  21028146.323    21028150.426    21028145.778
       176.000         141.000
   -235640.280 6   -183610.002 5  23846634.209    23846637.042    23846634.692
        20.000           8.000
    -64857.789 6    -50535.522 6  23124255.973    23124261.548    23124256.483
        23.000          17.000
  -2255984.931 7  -1757909.889 7  22363667.531    22363670.411    22363667.107
        76.000          43.000
   -985071.714 8   -767585.875 8  21856041.503    21856045.322    21856041.347
       132.000         109.000
   1555615.172 8   1212167.767 8  21100920.982    21100925.617    21100921.321
       230.000         170.000
   -511121.661 8   -398275.503 7  21819258.300    21819261.678    21819258.172
       109.000          96.000
   2780063.597 7   2166284.060 6  22964535.015    22964538.478    22964535.365
        54.000          31.000
 03  4 13  1 40  0.0000000  0 12G 9G18G23G30G21G17G24G 6G26G 5G29G10
    524736.735 6    408887.890 6  23988576.726    23988585.437    23988576.542
        16.000          13.000
  -2503586.749 7  -1950836.774 6  23166691.519    23166696.516    23166691.553
        38.000          22.000
  -2671538.692 7  -2081709.429 6  23517461.435    23517469.380    23517461.644
        34.000          30.000
   -313074.859 8   -243955.013 8  21027542.372    21027546.320    21027541.779
       179.000         140.000
   -243226.455 6   -189521.164 5  23845191.841    23845193.563    23845192.680
        22.000           8.000
    -65815.574 6    -51281.766 6  23124073.939    23124079.396    23124074.767
        23.000          18.000
        -1.10415        -0.38614  25137777.231    25137782.445    25137777.013
         8.000           2.000
  -2330446.360 7  -1815931.781 7  22349498.004    22349500.772    22349498.011
        75.000          45.000
  -1013776.184 8   -789952.928 8  21850579.257    21850582.917    21850579.029
       136.000         108.000
   1614839.764 8   1258316.779 8  21112191.092    21112195.627    21112191.488
       227.000         166.000
   -521677.686 8   -406500.938 7  21817249.387    21817252.913    21817249.423
       106.000          98.000
   2874727.248 7   2240047.949 6  22982548.849    22982552.260    22982549.474
        54.000          28.000
 03  4 13  1 40 30.0000000  0 12G 9G18G23G30G21G17G24G 6G26G 5G29G10
    544617.942 6    424379.737 6  23992359.672    23992369.354    23992359.298
        15.000          13.000
  -2582238.558 7  -2012123.638 6  23151724.111    23151729.340    23151724.321
        37.000          23.000
  -2756596.388 7  -2147988.073 6  23501275.998    23501282.873    23501276.209
        37.000          30.000
   -315793.028 8   -246072.947 8  21027024.918    21027028.937    21027024.436
       176.000         138.000
   -250834.106 6   -195449.093 5  23843743.453    23843746.259    23843744.161
        20.000           8.000
    -66746.728 6    -52007.257 6  23123897.045    23123902.261    23123897.824
        25.000          18.000
     41236.813 5                  25145625.431                    25145625.829
         9.000  
  -2404876.510 7  -1873929.285 7  22335334.420    22335337.343    22335334.531
        75.000          50.000
  -1042230.062 8   -812124.717 8  21845164.632    21845168.342    21845164.360
       140.000         110.000
   1674369.083 8   1304703.241 8  21123519.113    21123523.585    21123519.548
       226.000         164.000
   -531834.776 8   -414415.510 7  21815316.501    21815320.051    21815316.222
       105.000          98.000
   2969450.591 7   2313858.358 6  23000574.114    23000577.343    23000574.576
        55.000          27.000
 03  4 13  1 41  0.0000000  0 11G 9G18G23G30G21G17G 6G26G 5G29G10
    564273.495 6    439695.790 6  23996099.769    23996109.422    23996099.886
        15.000          14.000
  -2660539.509 7  -2073137.151 6  23136823.403    23136828.891    23136823.538
        37.000          23.000
  -2841353.983 7  -2214032.822 6  23485146.696    23485153.855    23485147.161
        36.000          27.000
   -317998.244 8   -247791.373 8  21026605.309    21026609.450    21026604.890
       174.000         139.000
   -258406.289 6   -201349.342 5  23842301.764    23842304.430    23842302.214
        20.000           8.000
    -67594.706 6    -52667.929 6  23123735.482    23123740.414    23123736.335
        25.000          17.000
  -2479214.104 7  -1931854.667 7  22321188.247    22321191.525    22321188.074
        76.000          55.000
  -1070372.400 8   -834053.747 8  21839809.321    21839813.103    21839809.075
       141.000         113.000
   1734259.120 8   1351370.788 8  21134916.132    21134920.247    21134916.494
       227.000         162.000
   -541532.333 8   -421972.012 7  21813471.309    21813474.629    21813471.335
       110.000          97.000
   3064289.866 7   2387759.104 6  23018621.304    23018624.555    23018621.810
        55.000          25.000
 03  4 13  1 41 30.0000000  0 11G 9G18G23G30G21G17G 6G26G 5G29G10
    583714.814 6    454844.969 6  23999799.367    23999808.856    23999799.520
        17.000          14.000
  -2738476.389 7  -2133867.064 6  23121992.789    23121997.841    23121992.793
        37.000          22.000
  -2925797.879 7  -2279832.994 6  23469077.332    23469084.214    23469077.894
        37.000          30.000
   -319679.529 8   -249101.524 8  21026285.465    21026289.717    21026284.998
       176.000         142.000
   -265933.046 6   -207214.230 5  23840869.936    23840871.565    23840870.524
        22.000           7.000
    -68350.629 6    -53256.885 6  23123591.635    23123596.460    23123592.627
        23.000          17.000
  -2553445.425 7  -1989697.243 7  22307062.352    22307065.905    22307062.053
        76.000          59.000
  -1098189.495 8   -855729.340 8  21834515.570    21834519.494    21834515.258
       138.000         114.000
   1794518.576 8   1398326.192 8  21146382.689    21146387.303    21146383.024
       214.000         162.000
   -550756.927 8   -429159.968 7  21811715.910    21811719.178    21811715.635
       112.000          99.000
   3159253.771 7   2461756.962 6  23036692.285    23036695.460    23036692.664
        53.000          26.000
 03  4 13  1 42  0.0000000  0 12G 9G18G23G30G21G17G24G 6G26G 5G29G10
    602936.661 6    469823.106 6  24003458.021    24003466.520    24003457.591
        20.000          14.000
