     2.10           OBSERVATION DATA    G (GPS)             RINEX VERSION / TYPE
teqc  2002Dec5      gpsops              20030414 01:46:04UTCPGM / RUN BY / DATE
Linux 2.0.36|Pentium II|gcc -static|Linux|486/DX+           COMMENT
ASC1                                                        MARKER NAME
30602M001                                                   MARKER NUMBER
GGN                 JPL                                     OBSERVER / AGENCY
T337-U              AOA SNR-8000 ACT    3.3.32.2            REC # / TYPE / VERS
203                 AOAD/M_T                                ANT # / TYPE
  6118526.0863 -1572344.6793  -876451.1980                  APPROX POSITION XYZ
        0.0677        0.0000        0.0000                  ANTENNA: DELTA H/E/N
     1     1                                                WAVELENGTH FACT L1/2
     7    L1    L2    P1    P2    C1    S1    S2            # / TYPES OF OBSERV
    30.0000                                                 INTERVAL
                                                            COMMENT
This data is provided as a public service by NASA/JPL.      COMMENT
No warranty is expressed or implied regarding suitability   COMMENT
for use.  For further information, contact:                 COMMENT
Dave Stowers, NASA/JPL m/s 238-600                          COMMENT
4800 Oak Grove Drive, Pasadena CA 91109 USA                 COMMENT
                                                            COMMENT
    P1 =    P1  TurboRogue; =    Y1  Benchmark              COMMENT
    L1 = L1(CA)                                             COMMENT
    P2 =    P2  TurboRogue; =    Y2  Benchmark              COMMENT
    L2 = L2(P2) TurboRogue; = L2(Y2) Benchmark              COMMENT
 SNR is mapped to RINEX snr flag value [1,4-9]              COMMENT
    SNR:  >=316 >=100 >=31.6 >=10 >=3.2    >0 bad=0         COMMENT
L1 & L2:      9     8     7     6     5     4     1         COMMENT
teqc windowed: start @ 2003 Apr 13 00:00:00.000             COMMENT
teqc windowed: delta = 86399.000 sec                        COMMENT
  2003     4    13     0     0    0.0000000     GPS         TIME OF FIRST OBS
                                                            END OF HEADER
 03  4 13  0  0  0.0000000  0  9G 5G10G30G 9G29G24G26G 7G17
 -19537350.746 8 -15223908.000 8  22436369.959    22436373.632    22436370.487
       307.000         211.000
 -21286764.547 8 -16587058.782 8  22219505.011    22219509.313    22219505.561
       246.000         265.000
  -7805368.087 7  -6082107.431 6  24703358.677    24703361.835    24703358.071
        45.000          24.000
   2155970.781 7   1679969.156 7  24347556.605    24347566.334    24347556.561
        48.000          33.000
  -4903699.836 6  -3821035.509 6  25053392.301    25053401.045    25053392.179
        31.000          31.000
  -6853248.133 7  -5340138.700 6  24725289.991    24725293.758    24725289.788
        41.000          23.000
  -2150140.957 6  -1675420.406 6  25223209.242    25223221.437    25223208.965
        25.000          17.000
   4151976.871 6   3235355.195 6  26490755.519    26490764.004    26490755.525
        13.000          10.000
    -96978.108 6                  25639745.031                    25639745.302
        14.000
 03  4 13  0  0 30.0000000  0 10G 5G10G30G 9G29G24G26G21G 7G 6
 -19579052.418 8 -15256402.819 8  22428434.324    22428438.013    22428434.731
       312.000         211.000
 -21264128.171 8 -16569420.015 8  22223812.555    22223816.842    22223813.005
       248.000         265.000
  -7893624.753 7  -6150878.890 6  24686563.966    24686567.112    24686563.392
        45.000          27.000
   2198729.549 7   1713287.251 7  24355693.692    24355703.603    24355693.216
        47.000          34.000
  -4953025.398 6  -3859470.739 6  25044005.790    25044014.324    25044005.640
        31.000          31.000
  -6782057.784 7  -5284665.699 6  24738836.772    24738840.692    24738836.859
        40.000          21.000
  -2190777.825 6  -1707085.126 6  25215476.374    25215487.979    25215476.146
        27.000          17.000
          .06616                  26395468.247                    26395468.775
        13.000
   4198877.960 6   3271901.326 4  26499681.774    26499684.825    26499682.077
        17.000           2.000
         -.86415                  26765485.424                    26765485.333
         8.000
 03  4 13  0  1  0.0000000  0  8G 5G10G30G 9G29G24G26G 7
 -19620256.335 8 -15288509.776 8  22420593.430    22420597.217    22420593.814
       314.000         210.000
 -21240953.514 8 -16551361.813 8  22228222.653    22228226.679    22228223.200
       249.000         261.000
  -7981651.047 7  -6219470.827 6  24669813.064    24669816.452    24669812.608
        46.000          28.000
   2241558.592 7   1746660.124 6  24363844.032    24363854.089    24363844.280
        45.000          30.000
  -5002430.809 7  -3897968.181 7  25034604.071    25034612.644    25034603.979
        32.000          33.000
  -6710964.336 7  -5229268.205 6  24752365.583    24752369.061    24752365.803
        39.000          18.000
  -2231580.474 6  -1738879.028 6  25207711.575    25207723.395    25207711.477
        29.000          19.000
   4245964.935 6   3308592.413 5  26508642.900    26508647.570    26508643.023
        17.000           5.000
 03  4 13  0  1 30.0000000  0 10G 5G10G30G 9G29G24G26G 7G17G 6
 -19660935.528 9 -15320207.860 8  22412852.554    22412856.266    22412852.992
       317.000         210.000
 -21217216.043 8 -16532865.057 8  22232739.687    22232743.755    22232740.240
       251.000         262.000
  -8069419.291 7  -6287861.689 6  24653111.193    24653114.609    24653110.515
        45.000          30.000
   2284481.199 7   1780106.022 6  24372012.173    24372022.232    24372012.110
        45.000          31.000
  -5051888.486 7  -3936506.361 6  25025192.336    25025200.735    25025192.184
        34.000          30.000
  -6639943.910 7  -5173927.601 6  24765880.235    24765883.732    24765880.354
        38.000          17.000
  -2272522.080 6  -1770781.205 6  25199920.231    25199932.304    25199919.934
        29.000          19.000
   4293263.693 5   3345448.426 5  26517640.774    26517648.801    26517641.558
         9.000           4.000
          .10516         -.24714  25612551.485    25612563.930    25612551.868
        15.000           3.000
         -.38516         -.36614  26743637.971    26743642.067    26743637.765
        10.000           3.000
 03  4 13  0  2  0.0000000  0 11G 5G10G30G 9G29G24G26G21G 7G17G 6
 -19701108.622 8 -15351511.579 8  22405207.715    22405211.602    22405208.116
       310.000         208.000
 -21192936.458 8 -16513945.868 8  22237359.768    22237364.154    22237360.265
       249.000         266.000
  -8156946.973 7  -6356065.093 6  24636455.287    24636458.659    24636454.778
        45.000          30.000
   2327474.347 7   1813606.894 7  24380193.420    24380203.585    24380193.505
        45.000          32.000
  -5101416.096 7  -3975099.059 6  25015767.492    25015775.609    25015767.241
        36.000          31.000
  -6569018.043 7  -5118660.682 6  24779377.030    24779380.482    24779376.912
        37.000          16.000
  -2313620.809 6  -1802805.789 6  25192098.923    25192111.136    25192098.862
        28.000          18.000
         -.09516                  26371003.411                    26371003.720
        10.000
   4340755.015 6   3382454.500 5  26526679.455    26526687.632    26526679.997
        11.000           8.000
    -46950.418 6    -36584.058 6  25603616.264    25603633.994    25603616.558
        15.000          10.000
    -57671.612 6    -44938.915 4  26732663.121    26732665.685    26732663.348
        10.000           1.000
 03  4 13  0  2 30.0000000  0  9G 5G10G30G 9G29G24G26G 7G17
 -19740787.427 8 -15382430.139 8  22397656.965    22397660.896    22397657.183
       306.000         204.000
 -21168128.687 8 -16494615.106 8  22242080.772    22242084.956    22242081.292
       256.000         268.000
  -8244244.733 7  -6424089.343 6  24619843.120    24619846.485    24619842.450
        46.000          31.000
   2370522.124 7   1847150.285 6  24388385.159    24388395.900    24388384.848
        43.000          30.000
  -5151024.500 7  -4013754.713 6  25006326.980    25006335.399    25006326.774
        36.000          31.000
  -6498201.352 7  -5063478.838 6  24792852.796    24792856.224    24792852.926
        37.000          15.000
  -2354888.514 6  -1834962.035 6  25184246.236    25184257.454    25184246.074
        30.000          16.000
   4388425.932 6   3419600.475 4  26535752.268    26535756.953    26535752.185
        15.000           2.000
    -93580.979 6    -72918.766 5  25594741.323    25594758.982    25594741.488
        14.000           9.000
 03  4 13  0  3  0.0000000  0 10G 5G10G30G 9G29G24G26G21G 7G17
 -19779955.902 8 -15412951.045 8  22390203.543    22390207.268    22390203.833
       306.000         203.000
 -21142779.216 8 -16474862.245 8  22246904.557    22246908.722    22246905.070
       259.000         266.000
  -8331295.849 7  -6491921.404 7  24603277.897    24603281.255    24603277.205
        48.000          32.000
   2413636.673 7   1880745.779 7  24396589.691    24396601.056    24396589.613
        42.000          32.000
  -5200696.816 7  -4052460.170 6  24996874.452    24996882.997    24996874.177
        37.000          30.000
  -6427481.130 7  -5008372.170 6  24806310.595    24806314.082    24806310.301
        36.000          16.000
  -2396308.849 6  -1867237.218 6  25176363.570    25176375.004    25176363.234
        28.000          15.000
        -1.02616                  26354960.674                    26354961.144
        11.000
   4436291.498 6                  26544859.228                    26544860.006
        11.000
   -139876.756 6   -108992.510 5  25585931.733    25585943.355    25585932.107
        17.000           4.000
 03  4 13  0  3 30.0000000  0  9G 5G10G30G 9G29G24G26G17G 6
 -19818591.725 8 -15443056.893 8  22382851.424    22382855.224    22382851.861
       302.000         208.000
 -21116867.776 8 -16454671.486 8  22251835.243    22251839.291    22251835.800
       260.000         261.000
  -8418076.685 7  -6559542.854 6  24586763.941    24586767.552    24586763.036
        47.000          31.000
   2456836.474 7   1914407.699 6  24404810.461    24404821.703    24404810.646
        43.000          31.000
  -5250409.766 7  -4091197.302 6  24987414.301    24987422.667    24987414.052
        36.000          31.000
  -6356837.799 7  -4953325.412 6  24819753.800    24819757.485    24819753.998
        35.000          16.000
  -2437859.215 6  -1899613.733 6  25168455.939    25168467.774    25168455.903
        25.000          15.000
   -185817.446 6   -144789.751 5  25577188.920    25577205.853    25577188.989
        16.000           9.000
         -.13516          .37114  26699527.239    26699529.065    26699527.321
        10.000           3.000
 03  4 13  0  4  0.0000000  0 10G 5G10G30G 9G29G24G26G 7G17G 6
 -19856723.462 8 -15472769.944 8  22375595.081    22375599.151    22375595.498
       298.000         211.000
 -21090425.357 8 -16434066.977 8  22256867.118    22256870.989    22256867.632
       258.000         257.000
  -8504614.727 7  -6626975.120 6  24570296.200    24570299.860    24570295.360
        45.000          31.000
   2500088.681 7   1948110.464 6  24413041.671    24413052.332    24413041.763
        43.000          29.000
  -5300191.071 7  -4129987.695 6  24977940.908    24977949.337    24977940.884
        35.000          31.000
  -6286302.610 7  -4898362.917 6  24833176.227    24833179.884    24833176.361
        34.000          16.000
  -2479568.080 6  -1932113.770 6  25160519.139    25160530.513    25160518.744
        28.000          15.000
         -.88716         -.63614  26563194.832    26563200.321    26563194.948
        15.000           2.000
   -231433.194 6   -180333.853 5  25568507.629    25568525.576    25568507.895
        17.000           9.000
    -58403.764 6    -45508.892 5  26688412.670    26688415.995    26688412.289
        10.000           6.000
 03  4 13  0  4 30.0000000  0 11G 5G10G30G 9G29G24G26G21G 7G17G 6
 -19894330.987 8 -15502074.522 8  22368438.580    22368442.632    22368438.989
       299.000         214.000
 -21063434.213 8 -16413034.892 8  22262003.205    22262007.395    22262003.711
       255.000         258.000
  -8590889.038 7  -6694201.863 6  24553878.812    24553882.476    24553877.743
        44.000          31.000
   2543409.534 7   1981866.720 6  24421285.353    24421296.700    24421285.210
        42.000          29.000
  -5350019.662 7  -4168814.949 6  24968458.956    24968467.125    24968458.888
        36.000          30.000
  -6215858.468 6  -4843471.365 6  24846580.959    24846584.545    24846580.959
        31.000          17.000
  -2521415.062 6  -1964721.430 6  25152555.608    25152566.735    25152555.529
        30.000          15.000
         -.10016                  26331309.013                    26331309.813
        11.000
     48473.665 6     37771.582 4  26572419.168    26572424.109    26572419.254
        12.000           2.000
   -276705.036 6   -215609.863 5  25559892.976    25559908.471    25559893.478
        17.000           8.000
   -116979.843 5    -91152.564 5  26677265.675    26677269.814    26677265.278
         9.000           5.000
 03  4 13  1 24 30.0000000  0  4G 6G26G29G10
          .07817          .25517  22792967.160    22792970.503    22792967.340
        48.000          32.000
         -.61218         -.24617  22043495.882    22043500.470    22043495.585
       107.000          91.000
         -.29417         -.49617  21916522.211    21916525.883    21916522.104
        93.000          86.000
         -.95717         -.06317  22435506.337    22435509.720    22435506.847
        78.000          53.000
 03  4 13  1 25  0.0000000  0 12G30G24G18G23G21G17G 9G 6G26G 5G29G10
         -.49218          .24418  21087117.407    21087121.322    21087116.911
       163.000         130.000
         -.93416         -.32914  24888843.080    24888844.819    24888843.371
        14.000           1.000
        -1.20716         -.95616  23643115.224    23643122.693    23643115.216
        24.000          14.000
         -.39316         -.62816  24025845.772    24025854.663    24025845.709
        23.000          19.000
        -1.18116         -.14615  23891478.006    23891483.611    23891478.290
        17.000           8.000
         -.60316         -.66316  23136601.558    23136607.378    23136602.344
        31.000          24.000
         -.23116          .12815  23853681.370    23853688.125    23853680.587
        17.000           6.000
    -75599.339 7    -58908.367 7  22778580.864    22778584.311    22778580.753
        47.000          32.000
    -36388.302 8    -28354.204 7  22036571.607    22036575.982    22036571.400
       111.000          91.000
        -1.20018         -.21118  20804896.622    20804901.011    20804896.976
       285.000         202.000
    -22822.485 7    -17783.967 7  21912179.314    21912182.806    21912179.138
        91.000          84.000
     90380.512 7     70427.060 7  22452705.196    22452708.896    22452705.718
        76.000          55.000
 03  4 13  1 25 30.0000000  0 11G30G18G23G21G17G 9G 6G26G 5G29G10
    -17777.386 8    -13851.933 8  21083734.672    21083738.486    21083734.183
       165.000         129.000
    -87731.660 6    -68362.599 6  23626421.711    23626427.994    23626421.761
        23.000          13.000
    -92560.331 6    -72125.072 6  24008232.603    24008241.106    24008233.118
        25.000          21.000
     -8890.731 6     -6926.837 5  23889786.692    23889792.233    23889786.728
        18.000           9.000
     -3713.465 6     -2893.660 6  23135894.242    23135900.628    23135894.953
        27.000          25.000
     26982.534 6     21025.526 5  23858816.811    23858822.099    23858816.627
        20.000           9.000
   -151196.247 7   -117815.036 7  22764195.202    22764198.808    22764194.697
        47.000          32.000
    -72558.586 8    -56538.752 7  22029688.629    22029692.822    22029688.447
       116.000          92.000
     48052.044 8     37443.851 8  20814040.536    20814045.335    20814040.958
       278.000         201.000
    -45271.689 7    -35276.802 7  21907907.262    21907910.992    21907907.259
        93.000          87.000
    180940.009 7    140992.903 7  22469938.079    22469941.772    22469938.376
        73.000          55.000
 03  4 13  1 26  0.0000000  0 11G30G18G23G21G17G 9G 6G26G 5G29G10
    -35033.829 8    -27298.568 8  21080451.013    21080454.650    21080450.441
       168.000         129.000
   -175173.811 6   -136499.550 6  23609781.648    23609789.119    23609781.724
        25.000          15.000
   -184885.894 6   -144067.047 6  23990663.108    23990671.706    23990663.691
        24.000          21.000
    -17698.012 6    -13789.417 5  23888111.191    23888115.064    23888110.977
        17.000           8.000
     -7291.798 6     -5681.835 6  23135212.944    23135219.558    23135213.216
        27.000          26.000
     53752.572 6     41885.042 6  23863910.128    23863917.386    23863910.533
        23.000          14.000
   -226770.716 7   -176704.224 7  22749814.006    22749817.456    22749813.975
        47.000          33.000
   -108491.035 8    -84537.974 7  22022850.881    22022854.915    22022850.520
       119.000          92.000
     96539.039 8     75225.901 8  20823267.562    20823272.079    20823267.969
       279.000         199.000
    -67327.668 7    -52463.230 7  21903710.194    21903713.772    21903710.162
        92.000          86.000
    271692.703 7    211709.286 7  22487207.605    22487211.348    22487208.211
        71.000          53.000
 03  4 13  1 26 30.0000000  0 11G30G18G23G21G17G 9G 6G26G 5G29G10
    -51770.478 8    -40340.171 8  21077266.108    21077269.816    21077265.613
       168.000         129.000
   -262326.021 6   -204410.564 6  23593197.647    23593204.659    23593197.473
        24.000          14.000
   -276975.320 6   -215825.091 6  23973138.770    23973148.112    23973139.396
        23.000          21.000
    -26425.229 6    -20589.649 5  23886449.819    23886453.656    23886450.257
        17.000           6.000
    -10738.169 6     -8367.183 6  23134558.012    23134564.361    23134558.013
        29.000          28.000
     80308.388 6     62577.517 6  23868964.458    23868972.703    23868964.107
        28.000          22.000
   -302321.219 7   -235574.731 7  22735437.289    22735440.570    22735437.431
        47.000          34.000
   -144183.845 8   -112350.469 7  22016058.564    22016062.742    22016058.270
       121.000          93.000
    145456.840 8    113343.650 8  20832576.069    20832580.714    20832576.463
       274.000         197.000
    -88988.630 7    -69341.848 7  21899588.297    21899591.922    21899588.309
        94.000          88.000
    362635.436 7    282573.756 7  22504513.494    22504517.095    22504514.060
        69.000          51.000
 03  4 13  1 27  0.0000000  0 12G30G24G18G23G21G17G 9G 6G26G 5G29G10
    -68015.004 8    -52998.300 8  21074174.918    21074178.691    21074174.535
       168.000         130.000
         -.61116                  24923571.212                    24923571.163
        14.000
   -349213.590 6   -272115.221 6  23576663.574    23576670.327    23576663.983
        25.000          14.000
   -368854.101 6   -287419.113 6  23955655.259    23955664.345    23955655.720
        23.000          21.000
    -35101.887 6    -27350.463 5  23884799.016    23884803.295    23884799.029
        18.000           8.000
    -14081.808 6    -10972.478 6  23133921.134    23133926.925    23133921.592
        27.000          26.000
    106621.604 6     83080.802 4  23873971.047    23873978.711    23873971.296
        11.000           1.000
   -377873.255 7   -294446.426 7  22721060.092    22721063.583    22721060.081
        44.000          36.000
   -179662.173 8   -139995.833 7  22009307.133    22009311.460    22009306.736
       124.000          95.000
    194775.580 8    151773.810 8  20841961.600    20841966.009    20841961.949
       281.000         200.000
   -110279.914 7    -85932.412 7  21895536.721    21895540.262    21895536.533
        94.000          86.000
    453737.843 7    353562.650 7  22521849.596    22521853.374    22521850.246
        67.000          51.000
 03  4 13  1 27 30.0000000  0 10G30G18G23G21G17G 6G26G 5G29G10
    -83769.147 8    -65274.313 8  21071177.038    21071180.893    21071176.442
       168.000         131.000
   -435836.433 6   -339613.572 6  23560179.734    23560186.298    23560180.103
        25.000          14.000
   -460521.834 6   -358848.783 6  23938211.661    23938220.817    23938212.230
        24.000          22.000
    -43731.315 6    -34074.455 6  23883155.728    23883162.299    23883156.302
        17.000          10.000
    -17326.487 6    -13500.672 6  23133302.739    23133308.806    23133303.549
        25.000          23.000
   -453426.603 7   -353319.148 7  22706682.548    22706686.256    22706682.271
        45.000          36.000
   -214925.444 8   -167473.624 7  22002596.835    22002601.030    22002596.524
       128.000          96.000
    244491.010 8    190513.092 8  20851421.955    20851426.567    20851422.399
       275.000         200.000
   -131201.043 7   -102234.548 7  21891555.430    21891558.889    21891555.201
        95.000          85.000
    544995.319 7    424672.376 7  22539215.206    22539219.199    22539215.880
        64.000          51.000
 03  4 13  1 28  0.0000000  0 11G30G18G23G21G17G24G 6G26G 5G29G10
    -99017.925 8    -77156.543 8  21068275.358    21068279.314    21068274.806
       169.000         132.000
   -522177.318 6   -406892.128 6  23543749.190    23543755.999    23543749.505
        26.000          14.000
   -551961.067 6   -430100.374 6  23920811.308    23920820.896    23920811.949
        25.000          23.000
    -52300.363 6    -40751.434 5  23881525.709    23881529.979    23881526.123
        18.000           8.000
    -20459.079 6    -15941.526 6  23132707.198    23132713.368    23132707.677
        26.000          24.000
         -.55116         -.36514  24940743.888    24940747.073    24940744.086
        16.000           2.000
   -528963.997 7   -412179.445 7  22692308.410    22692311.762    22692307.981
        45.000          35.000
   -249956.183 8   -194770.225 7  21995930.771    21995934.743    21995930.523
       133.000          96.000
    294615.583 8    229571.176 8  20860960.282    20860964.838    20860960.717
       273.000         197.000
   -151734.643 7   -118234.716 7  21887647.981    21887651.486    21887648.020
        93.000          84.000
    636420.011 7    495912.396 7  22556612.706    22556616.854    22556613.243
        63.000          51.000
 03  4 13  1 28 30.0000000  0 12G30G 9G18G23G21G17G24G 6G26G 5G29G10
   -113754.577 8    -88639.712 8  21065471.101    21065475.176    21065470.719
       170.000         135.000
         -.39216         -.33616  23888724.673    23888732.682    23888724.944
        22.000          10.000
   -608227.107 6   -473943.746 6  23527374.879    23527381.692    23527374.815
        26.000          14.000
   -643162.547 6   -501166.629 6  23903456.191    23903465.308    23903456.632
        25.000          21.000
    -60803.667 6    -47377.211 5  23879907.433    23879910.517    23879907.998
        17.000           7.000
    -23474.241 6    -18290.871 6  23132132.947    23132140.142    23132133.422
        24.000          27.000
     44888.378 6     34977.997 4  24949285.656    24949289.063    24949285.841
        13.000           2.000
   -604476.230 7   -471020.122 7  22677938.977    22677942.275    22677938.931
        49.000          35.000
   -284744.905 8   -221878.241 7  21989310.653    21989314.519    21989310.467
       136.000          97.000
    345153.899 8    268951.670 8  20870577.590    20870582.028    20870578.051
       272.000         197.000
   -171871.351 7   -133925.610 7  21883816.080    21883819.995    21883816.177
        95.000          90.000
    728016.487 7    567286.268 7  22574042.907    22574047.014    22574043.415
        61.000          47.000
 03  4 13  1 29  0.0000000  0 12G30G 9G18G23G21G17G24G 6G26G 5G29G10
   -127926.652 8    -99682.958 8  21062774.287    21062778.368    21062773.868
       167.000         136.000
     25441.729 6     19824.500 5  23893566.415    23893574.867    23893566.250
        19.000           9.000
   -693930.921 6   -540725.517 6  23511065.610    23511072.551    23511065.955
        26.000          15.000
   -734071.763 6   -572005.043 6  23886157.675    23886166.037    23886157.952
        26.000          22.000
    -69190.382 6    -53912.116 5  23878310.832    23878315.461    23878311.760
        17.000           9.000
    -26321.608 6    -20509.484 6  23131590.537    23131597.750    23131591.176
        22.000          24.000
     89676.866 6                  24957808.737                    24957808.575
        10.000
   -679908.644 7   -529798.617 7  22663584.810    22663588.097    22663584.866
        55.000          35.000
   -319236.723 8   -248754.903 7  21982746.945    21982750.837    21982746.695
       135.000          97.000
    396156.054 8    308693.584 8  20880282.660    20880287.359    20880283.011
       268.000         195.000
   -191556.624 7   -149264.736 7  21880070.067    21880073.965    21880070.001
        95.000          91.000
    819834.584 7    638832.840 7  22591515.525    22591519.111    22591516.141
        61.000          42.000
 03  4 13  1 29 30.0000000  0 11G30G 9G18G23G21G17G 6G26G 5G29G10
   -141621.368 8   -110354.241 8  21060168.338    21060172.355    21060167.866
       168.000         137.000
     50623.956 6     39446.813 6  23898358.232    23898367.765    23898358.151
        20.000          12.000
   -779374.492 6   -607304.625 6  23494805.833    23494812.488    23494805.755
        25.000          14.000
   -824773.744 6   -642681.991 6  23868897.366    23868906.437    23868897.576
        27.000          22.000
    -77548.978 6    -60425.114 6  23876720.855    23876725.258    23876721.654
        17.000          10.000
    -29089.523 6    -22666.173 6  23131064.653    23131070.035    23131065.135
        26.000          20.000
   -755346.090 7   -588581.033 7  22649229.499    22649232.861    22649229.589
        57.000          36.000
   -353516.141 8   -275466.059 8  21976223.587    21976227.782    21976223.396
       134.000         100.000
    447532.614 8    348727.247 8  20890059.647    20890063.977    20890060.055
       271.000         195.000
   -210874.995 7   -164317.966 7  21876393.807    21876397.620    21876393.794
        95.000          90.000
    911784.407 7    710482.064 7  22609013.029    22609016.405    22609013.595
        61.000          40.000
 03  4 13  1 30  0.0000000  0 12G30G 9G18G23G21G17G24G 6G26G 5G29G10
   -154834.629 8   -120650.369 8  21057654.063    21057658.047    21057653.624
       173.000         137.000
     75549.887 6     58869.503 6  23903101.811    23903111.031    23903101.980
        18.000          10.000
   -864550.531 6   -673674.807 6  23478596.662    23478603.507    23478596.722
        26.000          15.000
   -915262.067 6   -713192.391 6  23851678.034    23851686.830    23851678.497
        28.000          22.000
    -85877.168 6    -66914.428 5  23875135.750    23875140.032    23875136.393
        17.000           9.000
    -31776.163 6    -24759.532 6  23130553.182    23130558.960    23130553.529
        25.000          22.000
         -.27316         -.21915  24974748.161    24974754.759    24974748.477
        10.000           5.000
   -830782.191 7   -647362.397 7  22634874.591    22634877.966    22634874.488
        61.000          37.000
   -387576.600 8   -302006.594 8  21969741.972    21969746.335    21969741.732
       133.000         104.000
    499285.332 8    389054.016 8  20899907.413    20899912.427    20899907.803
       262.000         196.000
   -229820.267 7   -179080.472 7  21872788.672    21872792.271    21872788.742
        96.000          87.000
   1003867.323 7    782234.990 7  22626535.731    22626539.305    22626536.539
        61.000          40.000
 03  4 13  1 30 30.0000000  0 12G30G 9G18G23G21G17G24G 6G26G 5G29G10
   -167549.070 8   -130557.814 8  21055234.685    21055238.699    21055234.256
       172.000         135.000
    100236.327 6     78105.728 6  23907799.751    23907807.863    23907799.943
        21.000          10.000
   -949440.444 6   -739822.170 6  23462442.645    23462448.588    23462442.744
        26.000          15.000
  -1005516.397 6   -783520.095 6  23834502.897    23834511.988    23834503.505
        29.000          24.000
    -94158.995 6    -73367.620 5  23873559.632    23873563.544    23873559.883
        19.000           8.000
    -34365.271 6    -26776.893 6  23130059.569    23130066.973    23130060.034
        22.000          23.000
     44256.483 6                  24983171.336                    24983171.713
        12.000
   -906197.286 7   -706127.392 7  22620523.728    22620526.808    22620523.498
        63.000          38.000
   -421398.189 8   -328360.997 8  21963306.081    21963310.188    21963305.845
       135.000         103.000
    551429.434 8    429685.757 8  20909830.499    20909835.010    20909830.951
       264.000         193.000
   -248372.590 7   -193536.780 7  21869258.280    21869261.703    21869258.188
        94.000          86.000
   1096098.222 7    854103.228 7  22644086.839    22644090.249    22644087.615
        63.000          41.000
 03  4 13  1 31  0.0000000  0 11G30G 9G18G23G21G17G 6G26G 5G29G10
   -179740.735 8   -140057.903 8  21052914.670    21052918.703    21052914.176
       173.000         135.000
    124707.178 6     97174.054 6  23912455.069    23912464.907    23912454.948
        19.000          16.000
  -1034017.299 6   -805725.450 6  23446347.383    23446353.278    23446347.496
        27.000          15.000
  -1095511.029 6   -853645.431 6  23817377.615    23817386.326    23817378.244
        29.000          24.000
   -102372.023 6    -79767.186 6  23871996.648    23872000.609    23871996.517
        18.000          10.000
    -36834.645 6    -28700.982 6  23129590.512    23129596.178    23129590.413
        26.000          21.000
   -981565.042 7   -764855.501 7  22606181.716    22606184.780    22606181.375
        67.000          42.000
   -454954.328 8   -354508.558 8  21956920.601    21956924.521    21956920.353
       135.000         102.000
    603986.635 8    470639.399 8  20919831.732    20919836.241    20919832.119
       263.000         189.000
   -266505.418 7   -207666.210 7  21865807.804    21865811.094    21865807.505
        97.000          86.000
   1188498.569 7    926103.501 7  22661670.213    22661673.524    22661670.744
        65.000          42.000
 03  4 13  1 31 30.0000000  0 12G30G 9G18G23G21G17G24G 6G26G 5G29G10
   -191439.535 8   -149173.948 8  21050688.544    21050692.536    21050688.068
       173.000         135.000
    148931.561 6    116050.225 6  23917065.997    23917074.841    23917066.285
        22.000          12.000
  -1118309.170 6   -871406.661 6  23430306.059    23430312.296    23430306.245
        27.000          16.000
  -1185273.502 6   -923589.819 6  23800295.508    23800304.449    23800296.020
        29.000          23.000
   -110547.509 6    -86137.531 6  23870440.789    23870445.687    23870439.561
        19.000          12.000
    -39216.111 6    -30556.538 6  23129137.320    23129142.457    23129137.805
        25.000          20.000
         -.28116         -.86914  24999930.102    24999933.442    24999929.903
        12.000           2.000
  -1056913.051 7   -823568.224 7  22591843.275    22591846.511    22591842.855
        66.000          43.000
   -488272.214 8   -380470.471 8  21950580.261    21950584.268    21950580.040
       134.000         102.000
    656924.627 8    511889.757 8  20929905.528    20929910.089    20929905.894
       260.000         189.000
   -284246.521 8   -221490.400 7  21862431.835    21862435.190    21862431.861
       100.000          89.000
   1281036.149 7    998210.714 7  22679279.595    22679282.896    22679280.114
        67.000          42.000
 03  4 13  1 32  0.0000000  0 12G30G 9G18G23G21G17G24G 6G26G 5G29G10
   -202642.016 8   -157903.262 8  21048556.942    21048560.872    21048556.367
       175.000         134.000
    172912.954 6    134737.150 6  23921628.625    23921637.607    23921628.589
        19.000          12.000
  -1202310.881 6   -936862.031 6  23414320.919    23414326.669    23414321.199
        27.000          15.000
  -1274797.395 6   -993347.958 6  23783259.228    23783268.227    23783259.601
        31.000          25.000
   -118683.327 6    -92476.941 6  23868892.460    23868897.304    23868892.582
        19.000          12.000
    -41507.334 6    -32341.797 6  23128700.503    23128707.048    23128700.907
        23.000          21.000
     43786.973 6     34119.022 4  25008261.845    25008266.249    25008261.565
        11.000           2.000
  -1132235.299 7   -882260.870 7  22577509.998    22577513.007    22577509.817
        66.000          43.000
   -521345.792 8   -406242.015 8  21944286.342    21944290.532    21944286.101
       131.000         102.000
    710244.627 8    553437.786 8  20940051.983    20940056.576    20940052.394
       256.000         188.000
   -301589.840 7   -235004.620 7  21859131.307    21859134.782    21859131.310
        99.000          89.000
   1373711.970 7   1070425.646 7  22696915.085    22696918.389    22696915.598
        66.000          40.000
 03  4 13  1 32 30.0000000  0 12G30G 9G18G23G21G17G24G 6G26G 5G29G10
   -213349.023 8   -166246.497 8  21046519.621    21046523.486    21046519.243
       174.000         134.000
    196650.114 6    153233.744 5  23926145.802    23926154.703    23926146.159
        18.000           7.000
  -1286019.931 6  -1002089.066 6  23398391.272    23398397.338    23398391.491
        28.000          16.000
  -1364082.090 6  -1062919.864 6  23766268.636    23766276.597    23766269.131
        30.000          23.000
   -126781.977 6    -98787.397 6  23867352.034    23867355.120    23867351.988
        20.000          10.000
    -43710.914 6    -34058.777 6  23128281.691    23128287.528    23128281.760
        26.000          22.000
     87410.882 6                  25016563.817                    25016563.675
        11.000
  -1207530.042 7   -940932.080 7  22563181.914    22563184.817    22563182.276
        68.000          42.000
   -554173.325 8   -431821.836 8  21938039.399    21938043.499    21938039.108
       130.000         100.000
    763943.499 8    595281.035 8  20950270.442    20950275.105    20950270.725
       253.000         186.000
   -318533.864 8   -248207.700 7  21855906.961    21855910.237    21855906.904
       100.000          88.000
   1466522.745 7   1142745.731 7  22714576.163    22714579.576    22714576.897
        62.000          40.000
 03  4 13  1 33  0.0000000  0 11G30G 9G18G23G21G17G 6G26G 5G29G10
   -223532.344 8   -174181.665 8  21044581.887    21044585.921    21044581.524
       174.000         136.000
    220171.102 6    171562.009 6  23930621.884    23930629.966    23930621.857
        20.000          11.000
  -1369406.253 6  -1067064.539 6  23382522.135    23382528.057    23382522.344
        29.000          18.000
  -1453096.493 6  -1132281.051 6  23749329.185    23749337.197    23749329.268
        31.000          23.000
   -134816.332 6   -105047.775 6  23865821.909    23865826.991    23865822.153
        18.000          12.000
    -45800.269 6    -35686.738 6  23127884.494    23127889.278    23127885.475
        27.000          20.000
  -1282766.503 7   -999557.882 7  22548864.731    22548867.830    22548864.771
        67.000          41.000
   -586723.894 8   -457185.845 8  21931845.380    21931849.268    21931845.172
       131.000         101.000
    818047.418 8    637439.911 8  20960566.197    20960570.813    20960566.627
       251.000         184.000
   -335047.834 8   -261075.681 7  21852764.557    21852767.797    21852764.300
       103.000          90.000
   1559494.257 7   1215191.067 7  22732268.063    22732271.682    22732268.572
        61.000          40.000
 03  4 13  1 33 30.0000000  0 11G30G 9G18G23G21G17G 6G26G 5G29G10
   -233216.575 8   -181727.956 8  21042739.010    21042743.218    21042738.483
       173.000         136.000
    243451.367 6    189702.700 5  23935051.264    23935059.367    23935051.220
        15.000           7.000
  -1452492.152 6  -1131805.964 6  23366710.961    23366716.957    23366710.976
        28.000          18.000
  -1541862.942 6  -1201449.000 6  23732436.694    23732445.364    23732436.860
        30.000          24.000
   -142812.547 6   -111278.419 6  23864300.184    23864305.095    23864300.884
        20.000          13.000
    -47801.477 6    -37246.020 6  23127503.039    23127508.180    23127503.870
        24.000          18.000
  -1357966.735 7  -1058155.461 7  22534554.545    22534557.687    22534553.993
        67.000          40.000
   -619019.285 8   -482351.014 8  21925699.720    21925703.579    21925699.547
       131.000         101.000
    872529.422 8    679893.398 8  20970933.758    20970938.370    20970934.226
       249.000         182.000
   -351153.989 8   -273625.876 7  21849699.448    21849702.925    21849699.666
       103.000          91.000
   1652599.409 7   1287740.534 7  22749985.452    22749989.116    22749985.735
        60.000          39.000
 03  4 13  1 34  0.0000000  0 12G 9G18G23G30G21G17G24G 6G26G 5G29G10
    266511.974 6    207672.383 6  23939438.901    23939448.570    23939438.569
        18.000          14.000
  -1535254.068 6  -1196295.171 6  23350961.772    23350966.859    23350961.702
        29.000          17.000
  -1630357.674 6  -1270405.298 6  23715596.426    23715604.946    23715597.084
        31.000          25.000
   -242380.095 8   -188868.479 8  21040995.333    21040999.455    21040994.811
       171.000         134.000
   -150750.170 6   -117463.412 6  23862790.448    23862793.818    23862791.174
        20.000          11.000
    -49694.436 6    -38720.946 6  23127142.905    23127147.758    23127143.667
        25.000          17.000
         -.54716                  25041306.259                    25041305.984
        14.000
  -1433106.543 7  -1116705.963 7  22520256.126    22520258.995    22520255.906
        67.000          39.000
   -651035.349 8   -507298.527 7  21919607.052    21919611.061    21919606.742
       125.000          99.000
    927408.968 8    722656.657 8  20981377.104    20981381.618    20981377.512
       246.000         180.000
   -366828.226 8   -285839.511 7  21846716.683    21846720.116    21846716.427
       104.000          90.000
   1745857.547 7   1360409.212 7  22767731.910    22767735.364    22767732.234
        57.000          36.000
 03  4 13  1 34 30.0000000  0 11G 9G18G23G30G21G17G 6G26G 5G29G10
    289328.600 6    225451.787 6  23943781.550    23943789.932    23943780.989
        23.000          15.000
  -1617713.614 6  -1260548.789 6  23335269.707    23335275.204    23335269.943
        31.000          19.000
  -1718601.995 6  -1339166.394 6  23698803.450    23698811.753    23698803.936
        31.000          25.000
   -251046.846 8   -195621.876 8  21039346.197    21039350.283    21039345.741
       171.000         135.000
   -158654.475 6   -123622.464 6  23861285.796    23861289.990    23861286.822
        19.000          12.000
    -51504.635 6    -40131.403 6  23126798.395    23126803.296    23126799.065
        27.000          18.000
  -1508207.564 7  -1175226.237 7  22505964.871    22505967.706    22505965.287
        66.000          40.000
   -682793.265 8   -532044.891 8  21913563.590    21913567.535    21913563.372
       122.000         100.000
    982659.972 8    765709.368 8  20991890.866    20991895.554    20991891.220
       242.000         179.000
   -382092.085 8   -297733.380 7  21843812.150    21843815.351    21843812.096
       107.000          90.000
   1839242.359 7   1433176.603 7  22785502.271    22785505.638    22785502.979
        55.000          34.000
 03  4 13  1 35  0.0000000  0 11G 9G18G23G30G21G17G 6G26G 5G29G10
    311903.901 6    243042.944 6  23948076.874    23948085.726    23948076.582
        21.000          12.000
  -1699865.535 6  -1324562.897 6  23319636.161    23319642.012    23319636.038
        30.000          18.000
  -1806590.380 7  -1407727.962 6  23682059.199    23682067.068    23682060.095
        32.000          26.000
   -259213.936 8   -201985.938 8  21037792.195    21037796.231    21037791.833
       175.000         138.000
   -166523.889 6   -129754.305 6  23859788.243    23859792.065    23859788.712
        20.000          11.000
    -53230.610 6    -41476.217 6  23126469.473    23126474.948    23126469.752
        25.000          17.000
  -1583264.127 7  -1233711.866 7  22491681.971    22491685.004    22491682.053
        65.000          41.000
   -714287.314 8   -556585.645 8  21907570.474    21907574.426    21907570.181
       118.000         101.000
   1038283.236 8    809052.146 8  21002475.622    21002480.254    21002475.983
       240.000         177.000
   -396940.007 8   -309303.136 7  21840986.486    21840989.892    21840986.635
       106.000          91.000
   1932754.579 7   1506043.271 7  22803296.928    22803300.450    22803297.576
        53.000          33.000
 03  4 13  1 35 30.0000000  0 12G 9G18G23G30G21G17G24G 6G26G 5G29G10
    334268.800 6    260470.180 5  23952332.961    23952342.053    23952333.153
        17.000           8.000
  -1781676.012 7  -1388310.938 6  23304068.233    23304073.465    23304068.175
        33.000          20.000
  -1894290.305 6  -1476064.901 6  23665369.680    23665377.343    23665370.495
        30.000          25.000
   -266850.799 8   -207936.827 8  21036339.017    21036343.064    21036338.604
       174.000         137.000
   -174329.034 6   -135836.083 6  23858303.003    23858305.947    23858303.505
        21.000          10.000
    -54842.862 6    -42732.428 6  23126163.204    23126167.855    23126163.597
        26.000          16.000
        -1.05716                  25065794.947                    25065794.812
        10.000
  -1658242.913 7  -1292136.891 7  22477413.908    22477417.058    22477413.751
        66.000          42.000
   -745484.149 8   -580894.797 8  21901633.830    21901637.693    21901633.552
       116.000         101.000
   1094307.113 8    852707.095 8  21013136.806    21013141.306    21013137.258
       245.000         177.000
   -411339.146 8   -320523.192 7  21838246.432    21838249.889    21838246.198
       105.000          92.000
   2026422.509 7   1579031.269 7  22821121.499    22821124.951    22821121.965
        54.000          34.000
 03  4 13  1 36  0.0000000  0 11G 9G18G23G30G21G17G 6G26G 5G29G10
    356393.871 6    277710.702 6  23956543.381    23956552.131    23956543.296
        24.000          18.000
  -1863172.702 7  -1451814.546 6  23288559.608    23288564.484    23288559.574
        33.000          18.000
  -1981728.327 6  -1544197.633 6  23648730.197    23648738.065    23648730.520
        31.000          24.000
   -273986.780 8   -213497.333 8  21034981.041    21034985.295    21034980.541
       171.000         138.000
   -182100.630 6   -141891.743 6  23856823.869    23856826.810    23856823.927
        20.000          10.000
    -56372.453 6    -43924.212 6  23125871.734    23125876.718    23125871.843
        28.000          17.000
  -1733170.708 7  -1350522.196 7  22463155.823    22463158.749    22463155.568
        68.000          42.000
   -776410.784 8   -604993.405 8  21895748.607    21895752.387    21895748.273
       115.000         100.000
   1150699.714 8    896649.360 8  21023868.012    21023872.441    21023868.376
       244.000         175.000
   -425316.664 8   -331414.726 7  21835586.647    21835589.891    21835586.779
       107.000          91.000
   2120214.276 7   1652115.762 7  22838969.714    22838973.029    22838970.164
        56.000          34.000
 03  4 13  1 36 30.0000000  0 12G 9G18G23G30G21G17G24G 6G26G 5G29G10
    378280.897 6    294765.576 6  23960708.281    23960716.150    23960707.876
        20.000          11.000
  -1944350.945 7  -1515069.898 6  23273111.410    23273116.605    23273111.240
        34.000          20.000
  -2068900.175 6  -1612123.092 6  23632141.362    23632148.827    23632141.767
        31.000          26.000
   -280619.665 8   -218665.714 8  21033718.736    21033723.015    21033718.274
       172.000         142.000
   -189837.645 6   -147920.425 6  23855351.224    23855354.606    23855350.867
        21.000          10.000
    -57818.515 6    -45050.919 6  23125596.185    23125601.536    23125596.181
        25.000          17.000
         -.09716                  25081986.593                    25081986.297
        11.000
  -1808042.482 7  -1408863.841 7  22448908.347    22448911.204    22448908.380
        69.000          43.000
   -807061.976 8   -628877.391 8  21889915.744    21889919.648    21889915.403
       114.000         100.000
   1207461.249 8    940879.108 8  21034669.420    21034673.823    21034669.759
       244.000         174.000
   -438867.633 8   -341973.876 7  21833007.999    21833011.149    21833008.018
       110.000          91.000
   2214129.715 7   1725296.625 7  22856841.253    22856844.681    22856841.819
        54.000          36.000
 03  4 13  1 37  0.0000000  0 11G 9G18G23G30G21G17G 6G26G 5G29G10
    399945.361 6    311647.006 6  23964831.036    23964839.516    23964831.256
        19.000          10.000
  -2025193.116 7  -1578063.503 6  23257727.373    23257733.299    23257727.615
        34.000          21.000
  -2155788.005 7  -1679827.448 6  23615607.190    23615614.521    23615607.416
        33.000          26.000
   -286734.434 8   -223430.393 8  21032555.146    21032559.171    21032554.689
       174.000         142.000
   -197525.835 6   -153911.078 6  23853888.220    23853891.401    23853888.055
        23.000          10.000
    -59166.970 6    -46101.581 6  23125339.488    23125344.849    23125339.390
        26.000          17.000
  -1882840.092 7  -1467147.689 7  22434674.648    22434677.658    22434674.737
        67.000          44.000
   -837419.627 8   -652532.639 8  21884138.797    21884142.828    21884138.520
       114.000         102.000
   1264604.942 8    985406.640 8  21045543.458    21045548.089    21045543.819
       241.000         174.000
   -451974.312 8   -352186.837 7  21830513.928    21830517.039    21830513.868
       113.000          91.000
   2308182.344 7   1798584.390 7  22874738.809    22874742.284    22874739.301
        53.000          36.000
 03  4 13  1 37 30.0000000  0 11G 9G18G23G30G21G17G 6G26G 5G29G10
    421357.144 6    328331.630 6  23968905.582    23968913.634    23968905.127
        22.000          13.000
  -2105727.809 7  -1640817.689 6  23242401.765    23242407.593    23242401.910
        33.000          20.000
  -2242420.049 7  -1747332.610 6  23599121.162    23599128.547    23599121.598
        32.000          27.000
   -292361.850 8   -227815.361 8  21031484.237    21031488.273    21031483.840
       175.000         140.000
   -205197.292 6   -159888.712 5  23852427.854    23852430.795    23852427.968
        21.000           9.000
    -60449.936 6    -47101.200 6  23125095.531    23125100.397    23125095.474
        26.000          17.000
  -1957591.714 7  -1525395.704 7  22420449.766    22420452.968    22420449.366
        68.000          46.000
   -867511.674 8   -675980.921 8  21878412.513    21878416.564    21878412.266
       118.000         107.000
   1322097.846 8   1030206.285 8  21056483.941    21056488.598    21056484.366
       236.000         172.000
   -464665.021 8   -362075.669 7  21828098.872    21828101.968    21828098.955
       111.000          90.000
   2402339.472 7   1871953.578 7  22892656.189    22892659.677    22892656.845
        52.000          35.000
 03  4 13  1 38  0.0000000  0 12G 9G18G23G30G21G17G24G 6G26G 5G29G10
    442534.240 6    344833.395 6  23972935.007    23972942.830    23972934.671
        19.000          10.000
  -2185934.103 7  -1703316.110 6  23227139.010    23227144.222    23227138.983
        33.000          19.000
  -2328775.107 6  -1814622.009 6  23582687.879    23582695.342    23582688.361
        31.000          26.000
   -297483.181 8   -231805.912 8  21030509.547    21030513.721    21030508.989
       175.000         142.000
   -212834.328 6   -165839.529 5  23850974.406    23850977.582    23850974.342
        20.000           8.000
    -61650.515 6    -48036.620 6  23124866.663    23124871.925    23124866.374
        23.000          16.000
        -1.19915                  25106069.702                    25106069.962
         9.000
  -2032275.866 7  -1583591.149 7  22406237.809    22406240.999    22406237.583
        69.000          45.000
   -897316.803 8   -699205.629 8  21872740.885    21872744.858    21872740.744
       122.000         110.000
   1379956.390 8   1075290.842 8  21067494.151    21067498.507    21067494.556
       239.000         168.000
   -476918.617 8   -371623.889 7  21825767.027    21825770.159    21825766.851
       109.000          91.000
   2496617.342 7   1945416.852 7  22910596.854    22910600.293    22910597.335
        54.000          36.000
 03  4 13  1 38 30.0000000  0 11G 9G18G23G30G21G17G 6G26G 5G29G10
    463471.831 6    361148.577 6  23976918.712    23976927.791    23976918.640
        19.000          15.000
  -2265814.134 7  -1765560.118 6  23211938.542    23211943.576    23211938.555
        35.000          20.000
  -2414855.545 7  -1881697.287 6  23566306.980    23566314.522    23566307.418
        33.000          28.000
   -302103.738 8   -235406.256 8  21029630.115    21029634.445    21029629.606
       175.000         144.000
   -220443.393 6   -171768.527 5  23849526.674    23849530.054    23849526.790
        20.000           9.000
    -62774.866 6    -48912.649 6  23124652.552    23124658.138    23124652.637
        23.000          17.000
  -2106894.984 7  -1641735.908 7  22392038.499    22392041.392    22392038.731
        72.000          44.000
   -926837.349 8   -722208.583 8  21867123.243    21867127.218    21867122.943
       125.000         110.000
   1438173.229 8   1120654.596 8  21078572.727    21078576.886    21078573.087
       243.000         167.000
   -488737.814 8   -380833.613 7  21823517.841    21823521.076    21823517.650
       108.000          93.000
   2591008.378 7   2018968.309 7  22928559.059    22928562.463    22928559.638
        56.000          36.000
 03  4 13  1 39  0.0000000  0 11G 9G18G23G30G21G17G 6G26G 5G29G10
    484141.835 6    377255.210 6  23980852.824    23980861.063    23980852.889
        22.000          16.000
  -2345393.894 7  -1827570.092 6  23196794.977    23196800.027    23196794.732
        36.000          21.000
  -2500687.330 7  -1948578.851 6  23549974.065    23549980.748    23549974.784
        34.000          28.000
   -306252.036 8   -238638.631 8  21028840.794    21028845.046    21028840.434
       174.000         143.000
   -228053.848 6   -177698.634 5  23848078.540    23848080.876    23848079.343
        19.000           7.000
    -63852.252 6    -49752.084 6  23124447.562    23124453.101    23124448.050
        24.000          18.000
  -2181474.466 7  -1699849.779 7  22377846.472    22377849.364    22377846.492
        75.000          43.000
   -956098.761 8   -745009.615 8  21861554.877    21861558.872    21861554.494
       127.000         110.000
   1496718.007 8   1166273.885 8  21089713.117    21089717.726    21089713.527
       233.000         169.000
   -500148.534 8   -389725.046 7  21821346.297    21821349.775    21821346.263
       108.000          95.000
   2685482.326 7   2092584.376 7  22946536.934    22946540.285    22946537.495
        56.000          35.000
 03  4 13  1 39 30.0000000  0 11G 9G18G23G30G21G17G 6G26G 5G29G10
    504571.127 6    393174.320 6  23984740.126    23984748.060    23984740.119
        20.000          14.000
  -2424644.602 7  -1889323.653 6  23181713.855    23181718.645    23181714.005
        39.000          23.000
  -2586241.582 7  -2015244.245 6  23533693.230    23533700.477    23533693.512
        35.000          29.000
   -309901.427 8   -241482.259 8  21028146.325    21028150.430    21028145.780
       176.000         141.000
   -235640.279 6   -183610.000 5  23846634.209    23846637.042    23846634.692
        20.000           8.000
    -64857.786 6    -50535.518 6  23124255.972    23124261.547    23124256.482
        23.000          17.000
  -2255984.923 7  -1757909.875 7  22363667.528    22363670.405    22363667.104
        76.000          43.000
   -985071.716 8   -767585.878 8  21856041.504    21856045.324    21856041.348
       132.000         109.000
   1555615.161 8   1212167.748 8  21100920.987    21100925.627    21100921.326
       230.000         170.000
   -511121.658 8   -398275.499 7  21819258.299    21819261.676    21819258.171
       109.000          96.000
   2780063.609 7   2166284.080 6  22964535.011    22964538.469    22964535.361
        54.000          31.000
 03  4 13  1 40  0.0000000  0 12G 9G18G23G30G21G17G24G 6G26G 5G29G10
    524736.706 6    408887.841 6  23988576.738    23988585.462    23988576.554
        16.000          13.000
  -2503586.768 7  -1950836.806 6  23166691.526    23166696.532    23166691.560
        38.000          22.000
  -2671538.716 7  -2081709.469 6  23517461.444    23517469.400    23517461.653
        34.000          30.000
   -313074.863 8   -243955.020 8  21027542.374    21027546.324    21027541.781
       179.000         140.000
   -243226.454 6   -189521.162 5  23845191.841    23845193.562    23845192.680
        22.000           8.000
    -65815.571 6    -51281.762 6  23124073.938    23124079.395    23124074.766
        23.000          18.000
        -1.10415         -.38614  25137777.231    25137782.445    25137777.013
         8.000           2.000
  -2330446.352 7  -1815931.767 7  22349498.001    22349500.766    22349498.008
        75.000          45.000
  -1013776.186 8   -789952.931 8  21850579.258    21850582.919    21850579.030
       136.000         108.000
   1614839.753 8   1258316.760 8  21112191.097    21112195.637    21112191.493
       227.000         166.000
   -521677.683 8   -406500.934 7  21817249.386    21817252.911    21817249.422
       106.000          98.000
   2874727.260 7   2240047.969 6  22982548.845    22982552.251    22982549.470
        54.000          28.000
 03  4 13  1 40 30.0000000  0 12G 9G18G23G30G21G17G24G 6G26G 5G29G10
    544617.913 6    424379.688 6  23992359.684    23992369.379    23992359.310
        15.000          13.000
  -2582238.577 7  -2012123.670 6  23151724.118    23151729.356    23151724.328
        37.000          23.000
  -2756596.412 7  -2147988.113 6  23501276.007    23501282.893    23501276.218
        37.000          30.000
   -315793.032 8   -246072.954 8  21027024.920    21027028.941    21027024.438
       176.000         138.000
   -250834.105 6   -195449.091 5  23843743.453    23843746.258    23843744.161
        20.000           8.000
    -66746.725 6    -52007.253 6  23123897.044    23123902.260    23123897.823
        25.000          18.000
     41236.813 5                  25145625.431                    25145625.829
         9.000
  -2404876.502 7  -1873929.271 7  22335334.417    22335337.337    22335334.528
        75.000          50.000
  -1042230.064 8   -812124.720 8  21845164.633    21845168.344    21845164.361
       140.000         110.000
   1674369.072 8   1304703.222 8  21123519.118    21123523.595    21123519.553
       226.000         164.000
   -531834.773 8   -414415.505 7  21815316.500    21815320.049    21815316.221
       105.000          98.000
   2969450.603 7   2313858.378 6  23000574.110    23000577.334    23000574.572
        55.000          27.000
 03  4 13  1 41  0.0000000  0 11G 9G18G23G30G21G17G 6G26G 5G29G10
    564273.465 6    439695.740 6  23996099.781    23996109.447    23996099.898
        15.000          14.000
  -2660539.528 7  -2073137.183 6  23136823.410    23136828.907    23136823.545
        37.000          23.000
  -2841354.007 7  -2214032.862 6  23485146.705    23485153.875    23485147.170
        36.000          27.000
   -317998.248 8   -247791.380 8  21026605.311    21026609.454    21026604.892
       174.000         139.000
   -258406.288 6   -201349.340 5  23842301.764    23842304.429    23842302.214
        20.000           8.000
    -67594.703 6    -52667.925 6  23123735.481    23123740.412    23123736.334
        25.000          17.000
  -2479214.096 7  -1931854.653 7  22321188.244    22321191.519    22321188.071
        76.000          55.000
  -1070372.402 8   -834053.750 8  21839809.322    21839813.105    21839809.076
       141.000         113.000
   1734259.108 8   1351370.769 8  21134916.137    21134920.257    21134916.499
       227.000         162.000
   -541532.330 8   -421972.007 7  21813471.308    21813474.627    21813471.334
       110.000          97.000
   3064289.878 7   2387759.124 6  23018621.300    23018624.546    23018621.806
        55.000          25.000
 03  4 13  1 41 30.0000000  0 11G 9G18G23G30G21G17G 6G26G 5G29G10
    583714.784 6    454844.919 6  23999799.379    23999808.881    23999799.532
        17.000          14.000
  -2738476.408 7  -2133867.095 6  23121992.796    23121997.857    23121992.800
        37.000          22.000
  -2925797.902 7  -2279833.033 6  23469077.341    23469084.234    23469077.903
        37.000          30.000
   -319679.533 8   -249101.531 8  21026285.467    21026289.721    21026285.000
       176.000         142.000
   -265933.044 6   -207214.228 5  23840869.936    23840871.564    23840870.524
        22.000           7.000
    -68350.626 6    -53256.880 6  23123591.634    23123596.458    23123592.626
        23.000          17.000
  -2553445.417 7  -1989697.229 7  22307062.349    22307065.899    22307062.050
        76.000          59.000
  -1098189.497 8   -855729.343 8  21834515.571    21834519.496    21834515.259
       138.000         114.000
   1794518.564 8   1398326.172 8  21146382.694    21146387.313    21146383.029
       214.000         162.000
   -550756.924 8   -429159.963 7  21811715.909    21811719.176    21811715.634
       112.000          99.000
   3159253.783 7   2461756.982 6  23036692.281    23036695.451    23036692.660
        53.000          26.000
 03  4 13  1 42  0.0000000  0 12G 9G18G23G30G21G17G24G 6G26G 5G29G10
    602936.632 6    469823.056 6  24003458.033    24003466.545    24003457.603
        20.000          14.000
